{
  "version": "1.0.4",
  "airports": [
    {
      "name": "Hartsfield-Jackson Atlanta International Airport",
      "iata": "ATL",
      "address": "6000 N Terminal Pkwy, Atlanta, GA 30337, USA",
      "latitude": 33.6407,
      "longitude": -84.4277,
      "aliases": [
        "ATL",
        "Atlanta Airport"
      ]
    },
    {
      "name": "Dallas/Fort Worth International Airport",
      "iata": "DFW",
      "address": "2400 Aviation Dr, DFW Airport, TX 75261, USA",
      "latitude": 32.8998,
      "longitude": -97.0403,
      "aliases": [
        "DFW",
        "Dallas Airport"
      ]
    },
    {
      "name": "Denver International Airport",
      "iata": "DEN",
      "address": "8500 Peña Blvd, Denver, CO 80249, USA",
      "latitude": 39.8561,
      "longitude": -104.6737,
      "aliases": [
        "DEN",
        "DIA",
        "Denver Airport"
      ]
    },
    {
      "name": "Chicago O'Hare International Airport",
      "iata": "ORD",
      "address": "10000 W O'Hare Ave, Chicago, IL 60666, USA",
      "latitude": 41.9742,
      "longitude": -87.9073,
      "aliases": [
        "ORD",
        "O'Hare"
      ]
    },
    {
      "name": "Los Angeles International Airport",
      "iata": "LAX",
      "address": "1 World Way, Los Angeles, CA 90045, USA",
      "latitude": 33.9416,
      "longitude": -118.4085,
      "aliases": [
        "LAX",
        "Los Angeles Airport"
      ]
    },
    {
      "name": "John F. Kennedy International Airport",
      "iata": "JFK",
      "address": "Queens, NY 11430, USA",
      "latitude": 40.6413,
      "longitude": -73.7781,
      "aliases": [
        "JFK",
        "New York Airport"
      ]
    },
    {
      "name": "Harry Reid International Airport",
      "iata": "LAS",
      "address": "5757 Wayne Newton Blvd, Las Vegas, NV 89119, USA",
      "latitude": 36.084,
      "longitude": -115.1537,
      "aliases": [
        "LAS",
        "Las Vegas Airport",
        "McCarran"
      ]
    },
    {
      "name": "Orlando International Airport",
      "iata": "MCO",
      "address": "1 Jeff Fuqua Blvd, Orlando, FL 32827, USA",
      "latitude": 28.4281,
      "longitude": -81.306,
      "aliases": [
        "MCO",
        "Orlando Airport"
      ]
    },
    {
      "name": "Miami International Airport",
      "iata": "MIA",
      "address": "2100 NW 42nd Ave, Miami, FL 33142, USA",
      "latitude": 25.7959,
      "longitude": -80.287,
      "aliases": [
        "MIA",
        "Miami Airport"
      ]
    },
    {
      "name": "Charlotte Douglas International Airport",
      "iata": "CLT",
      "address": "5501 Josh Birmingham Pkwy, Charlotte, NC 28208, USA",
      "latitude": 35.214,
      "longitude": -80.9473,
      "aliases": [
        "CLT",
        "Charlotte Airport"
      ]
    },
    {
      "name": "Seattle-Tacoma International Airport",
      "iata": "SEA",
      "address": "17801 International Blvd, Seattle, WA 98158, USA",
      "latitude": 47.4502,
      "longitude": -122.3088,
      "aliases": [
        "SEA",
        "Sea-Tac"
      ]
    },
    {
      "name": "Phoenix Sky Harbor International Airport",
      "iata": "PHX",
      "address": "3400 E Sky Harbor Blvd, Phoenix, AZ 85034, USA",
      "latitude": 33.4342,
      "longitude": -112.0081,
      "aliases": [
        "PHX",
        "Phoenix Airport"
      ]
    },
    {
      "name": "Newark Liberty International Airport",
      "iata": "EWR",
      "address": "3 Brewster Rd, Newark, NJ 07114, USA",
      "latitude": 40.6895,
      "longitude": -74.1745,
      "aliases": [
        "EWR",
        "Newark Airport"
      ]
    },
    {
      "name": "San Francisco International Airport",
      "iata": "SFO",
      "address": "San Francisco, CA 94128, USA",
      "latitude": 37.6213,
      "longitude": -122.379,
      "aliases": [
        "SFO",
        "San Francisco Airport"
      ]
    },
    {
      "name": "George Bush Intercontinental Airport",
      "iata": "IAH",
      "address": "2800 N Terminal Rd, Houston, TX 77032, USA",
      "latitude": 29.9802,
      "longitude": -95.3368,
      "aliases": [
        "IAH",
        "Houston Airport"
      ]
    },
    {
      "name": "Boston Logan International Airport",
      "iata": "BOS",
      "address": "1 Harborside Dr, Boston, MA 02128, USA",
      "latitude": 42.3656,
      "longitude": -71.0096,
      "aliases": [
        "BOS",
        "Logan Airport"
      ]
    },
    {
      "name": "Fort Lauderdale-Hollywood International Airport",
      "iata": "FLL",
      "address": "100 Terminal Dr, Fort Lauderdale, FL 33315, USA",
      "latitude": 26.0742,
      "longitude": -80.1506,
      "aliases": [
        "FLL",
        "Fort Lauderdale Airport"
      ]
    },
    {
      "name": "Minneapolis-Saint Paul International Airport",
      "iata": "MSP",
      "address": "4300 Glumack Dr, St Paul, MN 55111, USA",
      "latitude": 44.8848,
      "longitude": -93.2223,
      "aliases": [
        "MSP",
        "Minneapolis Airport"
      ]
    },
    {
      "name": "LaGuardia Airport",
      "iata": "LGA",
      "address": "Queens, NY 11371, USA",
      "latitude": 40.7769,
      "longitude": -73.874,
      "aliases": [
        "LGA",
        "LaGuardia"
      ]
    },
    {
      "name": "Detroit Metropolitan Wayne County Airport",
      "iata": "DTW",
      "address": "11050 Rogell Dr, Detroit, MI 48242, USA",
      "latitude": 42.2124,
      "longitude": -83.3533,
      "aliases": [
        "DTW",
        "Detroit Airport"
      ]
    },
    {
      "name": "Philadelphia International Airport",
      "iata": "PHL",
      "address": "8000 Essington Ave, Philadelphia, PA 19153, USA",
      "latitude": 39.8729,
      "longitude": -75.2437,
      "aliases": [
        "PHL",
        "Philadelphia Airport"
      ]
    },
    {
      "name": "Salt Lake City International Airport",
      "iata": "SLC",
      "address": "777 N Terminal Dr, Salt Lake City, UT 84122, USA",
      "latitude": 40.7899,
      "longitude": -111.9791,
      "aliases": [
        "SLC",
        "Salt Lake City Airport"
      ]
    },
    {
      "name": "Baltimore/Washington International Thurgood Marshall Airport",
      "iata": "BWI",
      "address": "7050 Friendship Rd, Baltimore, MD 21240, USA",
      "latitude": 39.1774,
      "longitude": -76.6684,
      "aliases": [
        "BWI",
        "Baltimore Airport"
      ]
    },
    {
      "name": "Washington Dulles International Airport",
      "iata": "IAD",
      "address": "1 Saarinen Cir, Dulles, VA 20166, USA",
      "latitude": 38.9531,
      "longitude": -77.4565,
      "aliases": [
        "IAD",
        "Dulles Airport"
      ]
    },
    {
      "name": "San Diego International Airport",
      "iata": "SAN",
      "address": "3225 N Harbor Dr, San Diego, CA 92101, USA",
      "latitude": 32.7335,
      "longitude": -117.1933,
      "aliases": [
        "SAN",
        "San Diego Airport"
      ]
    },
    {
      "name": "Ronald Reagan Washington National Airport",
      "iata": "DCA",
      "address": "2400 S Smith Blvd, Arlington, VA 22202, USA",
      "latitude": 38.8512,
      "longitude": -77.0402,
      "aliases": [
        "DCA",
        "Reagan National"
      ]
    },
    {
      "name": "Tampa International Airport",
      "iata": "TPA",
      "address": "4100 George J Bean Pkwy, Tampa, FL 33607, USA",
      "latitude": 27.9772,
      "longitude": -82.5311,
      "aliases": [
        "TPA",
        "Tampa Airport"
      ]
    },
    {
      "name": "Nashville International Airport",
      "iata": "BNA",
      "address": "1 Terminal Dr, Nashville, TN 37214, USA",
      "latitude": 36.1263,
      "longitude": -86.6774,
      "aliases": [
        "BNA",
        "Nashville Airport"
      ]
    },
    {
      "name": "Austin-Bergstrom International Airport",
      "iata": "AUS",
      "address": "3600 Presidential Blvd, Austin, TX 78719, USA",
      "latitude": 30.1944,
      "longitude": -97.6699,
      "aliases": [
        "AUS",
        "Austin Airport"
      ]
    },
    {
      "name": "Midway International Airport",
      "iata": "MDW",
      "address": "5700 S Cicero Ave, Chicago, IL 60638, USA",
      "latitude": 41.7868,
      "longitude": -87.7522,
      "aliases": [
        "MDW",
        "Chicago Midway"
      ]
    },
    {
      "name": "Honolulu International Airport",
      "iata": "HNL",
      "address": "300 Rodgers Blvd, Honolulu, HI 96819, USA",
      "latitude": 21.3245,
      "longitude": -157.9251,
      "aliases": [
        "HNL",
        "Daniel K. Inouye"
      ]
    },
    {
      "name": "Portland International Airport",
      "iata": "PDX",
      "address": "7000 NE Airport Way, Portland, OR 97218, USA",
      "latitude": 45.5891,
      "longitude": -122.5934,
      "aliases": [
        "PDX",
        "Portland Airport"
      ]
    },
    {
      "name": "St. Louis Lambert International Airport",
      "iata": "STL",
      "address": "10701 Lambert International Blvd, St. Louis, MO 63145, USA",
      "latitude": 38.7477,
      "longitude": -90.3597,
      "aliases": [
        "STL",
        "Lambert Airport"
      ]
    },
    {
      "name": "William P. Hobby Airport",
      "iata": "HOU",
      "address": "7800 Airport Blvd, Houston, TX 77061, USA",
      "latitude": 29.6454,
      "longitude": -95.2789,
      "aliases": [
        "HOU",
        "Hobby Airport"
      ]
    },
    {
      "name": "Raleigh-Durham International Airport",
      "iata": "RDU",
      "address": "2400 John Brantley Blvd, Morrisville, NC 27560, USA",
      "latitude": 35.8776,
      "longitude": -78.7875,
      "aliases": [
        "RDU",
        "Raleigh Airport"
      ]
    },
    {
      "name": "Sacramento International Airport",
      "iata": "SMF",
      "address": "6900 Airport Blvd, Sacramento, CA 95837, USA",
      "latitude": 38.6957,
      "longitude": -121.5908,
      "aliases": [
        "SMF",
        "Sacramento Airport"
      ]
    },
    {
      "name": "John Wayne Airport",
      "iata": "SNA",
      "address": "18601 Airport Way, Santa Ana, CA 92707, USA",
      "latitude": 33.6762,
      "longitude": -117.8674,
      "aliases": [
        "SNA",
        "Orange County Airport",
        "Santa Ana"
      ]
    },
    {
      "name": "Cleveland Hopkins International Airport",
      "iata": "CLE",
      "address": "5300 Riverside Dr, Cleveland, OH 44135, USA",
      "latitude": 41.4123,
      "longitude": -81.8497,
      "aliases": [
        "CLE",
        "Cleveland Airport"
      ]
    },
    {
      "name": "Pittsburgh International Airport",
      "iata": "PIT",
      "address": "1000 Airport Blvd, Pittsburgh, PA 15231, USA",
      "latitude": 40.4915,
      "longitude": -80.2329,
      "aliases": [
        "PIT",
        "Pittsburgh Airport"
      ]
    },
    {
      "name": "San Antonio International Airport",
      "iata": "SAT",
      "address": "9800 Airport Blvd, San Antonio, TX 78216, USA",
      "latitude": 29.5312,
      "longitude": -98.4683,
      "aliases": [
        "SAT",
        "San Antonio Airport"
      ]
    },
    {
      "name": "Indianapolis International Airport",
      "iata": "IND",
      "address": "7800 Col. H. Weir Cook Memorial Dr, Indianapolis, IN 46241, USA",
      "latitude": 39.7173,
      "longitude": -86.2941,
      "aliases": [
        "IND",
        "Indianapolis Airport"
      ]
    },
    {
      "name": "Southwest Florida International Airport",
      "iata": "RSW",
      "address": "11000 Terminal Access Rd, Fort Myers, FL 33913, USA",
      "latitude": 26.5362,
      "longitude": -81.7551,
      "aliases": [
        "RSW",
        "Fort Myers Airport"
      ]
    },
    {
      "name": "Palm Beach International Airport",
      "iata": "PBI",
      "address": "1000 James L Turnage Blvd, West Palm Beach, FL 33415, USA",
      "latitude": 26.6832,
      "longitude": -80.0956,
      "aliases": [
        "PBI",
        "West Palm Beach Airport"
      ]
    },
    {
      "name": "Milwaukee Mitchell International Airport",
      "iata": "MKE",
      "address": "5300 S Howell Ave, Milwaukee, WI 53207, USA",
      "latitude": 42.9472,
      "longitude": -87.8967,
      "aliases": [
        "MKE",
        "Milwaukee Airport"
      ]
    },
    {
      "name": "Albuquerque International Sunport",
      "iata": "ABQ",
      "address": "2200 Sunport Blvd SE, Albuquerque, NM 87106, USA",
      "latitude": 35.0402,
      "longitude": -106.6092,
      "aliases": [
        "ABQ",
        "Albuquerque Airport"
      ]
    },
    {
      "name": "Buffalo Niagara International Airport",
      "iata": "BUF",
      "address": "4200 Genesee St, Cheektowaga, NY 14225, USA",
      "latitude": 42.9405,
      "longitude": -78.7322,
      "aliases": [
        "BUF",
        "Buffalo Airport"
      ]
    },
    {
      "name": "Bradley International Airport",
      "iata": "BDL",
      "address": "Schoephoester Rd, Windsor Locks, CT 06096, USA",
      "latitude": 41.9389,
      "longitude": -72.6832,
      "aliases": [
        "BDL",
        "Hartford Airport"
      ]
    },
    {
      "name": "Memphis International Airport",
      "iata": "MEM",
      "address": "2491 Winchester Rd, Memphis, TN 38116, USA",
      "latitude": 35.0424,
      "longitude": -89.9767,
      "aliases": [
        "MEM",
        "Memphis Airport"
      ]
    },
    {
      "name": "Louisville Muhammad Ali International Airport",
      "iata": "SDF",
      "address": "600 Terminal Dr, Louisville, KY 40209, USA",
      "latitude": 38.1744,
      "longitude": -85.736,
      "aliases": [
        "SDF",
        "Louisville Airport"
      ]
    },
    {
      "name": "Eppley Airfield",
      "iata": "OMA",
      "address": "4501 Abbott Dr, Omaha, NE 68110, USA",
      "latitude": 41.302,
      "longitude": -95.8941,
      "aliases": [
        "OMA",
        "Omaha Airport"
      ]
    },
    {
      "name": "Boise Airport",
      "iata": "BOI",
      "address": "3201 W Airport Way, Boise, ID 83705, USA",
      "latitude": 43.5644,
      "longitude": -116.2228,
      "aliases": [
        "BOI",
        "Boise Air Terminal"
      ]
    },
    {
      "name": "Reno-Tahoe International Airport",
      "iata": "RNO",
      "address": "2001 E Plumb Ln, Reno, NV 89502, USA",
      "latitude": 39.4986,
      "longitude": -119.7681,
      "aliases": [
        "RNO",
        "Reno Airport"
      ]
    },
    {
      "name": "Norfolk International Airport",
      "iata": "ORF",
      "address": "2200 Norview Ave, Norfolk, VA 23518, USA",
      "latitude": 36.8946,
      "longitude": -76.2012,
      "aliases": [
        "ORF",
        "Norfolk Airport"
      ]
    },
    {
      "name": "Savannah/Hilton Head International Airport",
      "iata": "SAV",
      "address": "400 Airways Ave, Savannah, GA 31408, USA",
      "latitude": 32.1276,
      "longitude": -81.2021,
      "aliases": [
        "SAV",
        "Savannah Airport"
      ]
    },
    {
      "name": "Gerald R. Ford International Airport",
      "iata": "GRR",
      "address": "5500 44th St SE, Grand Rapids, MI 49512, USA",
      "latitude": 42.8808,
      "longitude": -85.5228,
      "aliases": [
        "GRR",
        "Grand Rapids Airport"
      ]
    },
    {
      "name": "Tucson International Airport",
      "iata": "TUS",
      "address": "7250 S Tucson Blvd, Tucson, AZ 85756, USA",
      "latitude": 32.1161,
      "longitude": -110.941,
      "aliases": [
        "TUS",
        "Tucson Airport"
      ]
    },
    {
      "name": "Anchorage Ted Stevens International Airport",
      "iata": "ANC",
      "address": "5000 W International Airport Rd, Anchorage, AK 99502, USA",
      "latitude": 61.1742,
      "longitude": -149.9964,
      "aliases": [
        "ANC",
        "Anchorage Airport"
      ]
    },
    {
      "name": "Kahului Airport",
      "iata": "OGG",
      "address": "1 Keolani Pl, Kahului, HI 96732, USA",
      "latitude": 20.8986,
      "longitude": -156.4305,
      "aliases": [
        "OGG",
        "Maui Airport"
      ]
    },
    {
      "name": "San Jose Mineta International Airport",
      "iata": "SJC",
      "address": "1701 Airport Blvd, San Jose, CA 95110, USA",
      "latitude": 37.3639,
      "longitude": -121.9289,
      "aliases": [
        "SJC",
        "San Jose Airport"
      ]
    },
    {
      "name": "Oakland International Airport",
      "iata": "OAK",
      "address": "1 Airport Dr, Oakland, CA 94621, USA",
      "latitude": 37.7126,
      "longitude": -122.2132,
      "aliases": [
        "OAK",
        "Oakland Airport"
      ]
    },
    {
      "name": "Ontario International Airport",
      "iata": "ONT",
      "address": "2500 E Airport Dr, Ontario, CA 91761, USA",
      "latitude": 34.056,
      "longitude": -117.6012,
      "aliases": [
        "ONT",
        "Ontario Airport"
      ]
    },
    {
      "name": "Burbank Bob Hope Airport",
      "iata": "BUR",
      "address": "2627 N Hollywood Way, Burbank, CA 91505, USA",
      "latitude": 34.2007,
      "longitude": -118.359,
      "aliases": [
        "BUR",
        "Burbank Airport",
        "Hollywood Burbank"
      ]
    },
    {
      "name": "Long Beach Airport",
      "iata": "LGB",
      "address": "4100 Donald Douglas Dr, Long Beach, CA 90808, USA",
      "latitude": 33.8183,
      "longitude": -118.1447,
      "aliases": [
        "LGB",
        "Long Beach"
      ]
    },
    {
      "name": "London Heathrow Airport",
      "iata": "LHR",
      "address": "Longford TW6, United Kingdom",
      "latitude": 51.47,
      "longitude": -0.4543,
      "aliases": [
        "LHR",
        "Heathrow"
      ]
    },
    {
      "name": "Paris Charles de Gaulle Airport",
      "iata": "CDG",
      "address": "95700 Roissy-en-France, France",
      "latitude": 49.0097,
      "longitude": 2.5479,
      "aliases": [
        "CDG",
        "Roissy Airport"
      ]
    },
    {
      "name": "Amsterdam Airport Schiphol",
      "iata": "AMS",
      "address": "Evert van de Beekstraat 202, 1118 CP Schiphol, Netherlands",
      "latitude": 52.3105,
      "longitude": 4.7683,
      "aliases": [
        "AMS",
        "Schiphol"
      ]
    },
    {
      "name": "Frankfurt Airport",
      "iata": "FRA",
      "address": "60547 Frankfurt, Germany",
      "latitude": 50.0379,
      "longitude": 8.5622,
      "aliases": [
        "FRA",
        "Frankfurt am Main"
      ]
    },
    {
      "name": "Dubai International Airport",
      "iata": "DXB",
      "address": "Dubai, United Arab Emirates",
      "latitude": 25.2532,
      "longitude": 55.3657,
      "aliases": [
        "DXB",
        "Dubai Airport"
      ]
    },
    {
      "name": "Tokyo Haneda Airport",
      "iata": "HND",
      "address": "Hanedakuko, Ota City, Tokyo 144-0041, Japan",
      "latitude": 35.5494,
      "longitude": 139.7798,
      "aliases": [
        "HND",
        "Haneda"
      ]
    },
    {
      "name": "Tokyo Narita International Airport",
      "iata": "NRT",
      "address": "1-1 Furugome, Narita, Chiba 282-0004, Japan",
      "latitude": 35.7767,
      "longitude": 140.3864,
      "aliases": [
        "NRT",
        "Narita"
      ]
    },
    {
      "name": "Singapore Changi Airport",
      "iata": "SIN",
      "address": "Airport Blvd., Singapore",
      "latitude": 1.3644,
      "longitude": 103.9915,
      "aliases": [
        "SIN",
        "Changi"
      ]
    },
    {
      "name": "Hong Kong International Airport",
      "iata": "HKG",
      "address": "1 Sky Plaza Rd, Chek Lap Kok, Hong Kong",
      "latitude": 22.308,
      "longitude": 113.9185,
      "aliases": [
        "HKG",
        "Chek Lap Kok"
      ]
    },
    {
      "name": "Incheon International Airport",
      "iata": "ICN",
      "address": "272 Gonghang-ro, Jung-gu, Incheon, South Korea",
      "latitude": 37.4602,
      "longitude": 126.4407,
      "aliases": [
        "ICN",
        "Seoul Airport"
      ]
    },
    {
      "name": "Istanbul Airport",
      "iata": "IST",
      "address": "Tayakadın, Terminal Caddesi No:1, 34283 Arnavutköy/İstanbul, Turkey",
      "latitude": 41.2753,
      "longitude": 28.7419,
      "aliases": [
        "IST",
        "Istanbul hub"
      ]
    },
    {
      "name": "Madrid-Barajas Airport",
      "iata": "MAD",
      "address": "Av de la Hispanidad, s/n, 28042 Madrid, Spain",
      "latitude": 40.4839,
      "longitude": -3.5679,
      "aliases": [
        "MAD",
        "Adolfo Suárez"
      ]
    },
    {
      "name": "Barcelona-El Prat Airport",
      "iata": "BCN",
      "address": "08820 El Prat de Llobregat, Barcelona, Spain",
      "latitude": 41.2974,
      "longitude": 2.0833,
      "aliases": [
        "BCN",
        "El Prat"
      ]
    },
    {
      "name": "Munich Airport",
      "iata": "MUC",
      "address": "Nordallee 25, 85356 München, Germany",
      "latitude": 48.3537,
      "longitude": 11.775,
      "aliases": [
        "MUC",
        "Franz Josef Strauss"
      ]
    },
    {
      "name": "Rome Fiumicino Airport",
      "iata": "FCO",
      "address": "Via dell' Aeroporto di Fiumicino, 00054 Fiumicino RM, Italy",
      "latitude": 41.7999,
      "longitude": 12.2462,
      "aliases": [
        "FCO",
        "Leonardo da Vinci"
      ]
    },
    {
      "name": "Zurich Airport",
      "iata": "ZRH",
      "address": "8058 Kloten, Switzerland",
      "latitude": 47.4582,
      "longitude": 8.5555,
      "aliases": [
        "ZRH",
        "Kloten"
      ]
    },
    {
      "name": "Vienna International Airport",
      "iata": "VIE",
      "address": "1300 Schwechat, Austria",
      "latitude": 48.1103,
      "longitude": 16.5636,
      "aliases": [
        "VIE",
        "Schwechat"
      ]
    },
    {
      "name": "Toronto Pearson International Airport",
      "iata": "YYZ",
      "address": "6301 Silver Dart Dr, Mississauga, ON L5P 1B2, Canada",
      "latitude": 43.6777,
      "longitude": -79.6248,
      "aliases": [
        "YYZ",
        "Toronto Airport"
      ]
    },
    {
      "name": "Vancouver International Airport",
      "iata": "YVR",
      "address": "3211 Grant McConachie Way, Richmond, BC V7B 0Y7, Canada",
      "latitude": 49.1967,
      "longitude": -123.1815,
      "aliases": [
        "YVR",
        "Vancouver Airport"
      ]
    },
    {
      "name": "Mexico City International Airport",
      "iata": "MEX",
      "address": "Av. Capitán Carlos León s/n, Peñón de los Baños, Venustiano Carranza, 15620 Ciudad de México, CDMX, Mexico",
      "latitude": 19.4361,
      "longitude": -99.0719,
      "aliases": [
        "MEX",
        "Benito Juárez"
      ]
    },
    {
      "name": "São Paulo/Guarulhos International Airport",
      "iata": "GRU",
      "address": "Rod. Hélio Smidt, s/nº - Aeroporto, Guarulhos - SP, 07190-100, Brazil",
      "latitude": -23.4356,
      "longitude": -46.4731,
      "aliases": [
        "GRU",
        "Cumbica"
      ]
    },
    {
      "name": "Sydney Airport",
      "iata": "SYD",
      "address": "Sydney NSW 2020, Australia",
      "latitude": -33.9399,
      "longitude": 151.1753,
      "aliases": [
        "SYD",
        "Kingsford Smith"
      ]
    },
    {
      "name": "Melbourne Airport",
      "iata": "MEL",
      "address": "Departure Dr, Melbourne Airport VIC 3045, Australia",
      "latitude": -37.669,
      "longitude": 144.841,
      "aliases": [
        "MEL",
        "Tullamarine"
      ]
    },
    {
      "name": "Beijing Capital International Airport",
      "iata": "PEK",
      "address": "Chaoyang, Beijing, China",
      "latitude": 40.0799,
      "longitude": 116.6031,
      "aliases": [
        "PEK",
        "Beijing Capital"
      ]
    },
    {
      "name": "Shanghai Pudong International Airport",
      "iata": "PVG",
      "address": "Pudong, Shanghai, China",
      "latitude": 31.1443,
      "longitude": 121.8083,
      "aliases": [
        "PVG",
        "Pudong"
      ]
    },
    {
      "name": "London Gatwick Airport",
      "iata": "LGW",
      "address": "Horley, Gatwick RH6 0NP, United Kingdom",
      "latitude": 51.1537,
      "longitude": -0.1821,
      "aliases": [
        "LGW",
        "Gatwick"
      ]
    },
    {
      "name": "Manchester Airport",
      "iata": "MAN",
      "address": "Manchester M90 1QX, United Kingdom",
      "latitude": 53.3588,
      "longitude": -2.2727,
      "aliases": [
        "MAN",
        "Manchester"
      ]
    },
    {
      "name": "Dublin Airport",
      "iata": "DUB",
      "address": "Dublin, Ireland",
      "latitude": 53.4264,
      "longitude": -6.2499,
      "aliases": [
        "DUB",
        "Dublin"
      ]
    },
    {
      "name": "Copenhagen Airport",
      "iata": "CPH",
      "address": "Lufthavnsboulevarden 6, 2770 Kastrup, Denmark",
      "latitude": 55.618,
      "longitude": 12.6508,
      "aliases": [
        "CPH",
        "Kastrup"
      ]
    },
    {
      "name": "Stockholm Arlanda Airport",
      "iata": "ARN",
      "address": "190 45 Stockholm-Arlanda, Sweden",
      "latitude": 59.6519,
      "longitude": 17.9186,
      "aliases": [
        "ARN",
        "Arlanda"
      ]
    },
    {
      "name": "Oslo Airport Gardermoen",
      "iata": "OSL",
      "address": "Edvard Munchs veg, 2061 Gardermoen, Norway",
      "latitude": 60.1975,
      "longitude": 11.1004,
      "aliases": [
        "OSL",
        "Gardermoen"
      ]
    },
    {
      "name": "Helsinki Airport",
      "iata": "HEL",
      "address": "01531 Vantaa, Finland",
      "latitude": 60.3172,
      "longitude": 24.9633,
      "aliases": [
        "HEL",
        "Vantaa"
      ]
    },
    {
      "name": "Brussels Airport",
      "iata": "BRU",
      "address": "Leopoldlaan, 1930 Zaventem, Belgium",
      "latitude": 50.901,
      "longitude": 4.4844,
      "aliases": [
        "BRU",
        "Zaventem"
      ]
    },
    {
      "name": "Lisbon Airport",
      "iata": "LIS",
      "address": "Alameda das Comunidades Portuguesas, 1700-111 Lisboa, Portugal",
      "latitude": 38.7742,
      "longitude": -9.1342,
      "aliases": [
        "LIS",
        "Humberto Delgado"
      ]
    },
    {
      "name": "Athens International Airport",
      "iata": "ATH",
      "address": "Attiki Odos, Spata Loutsa 190 04, Greece",
      "latitude": 37.9356,
      "longitude": 23.9484,
      "aliases": [
        "ATH",
        "Eleftherios Venizelos"
      ]
    },
    {
      "name": "Prague Vaclav Havel Airport",
      "iata": "PRG",
      "address": "Aviatická, 161 08 Praha 6, Czechia",
      "latitude": 50.1018,
      "longitude": 14.2632,
      "aliases": [
        "PRG",
        "Ruzyne"
      ]
    },
    {
      "name": "Warsaw Chopin Airport",
      "iata": "WAW",
      "address": "Żwirki i Wigury 1, 00-001 Warszawa, Poland",
      "latitude": 52.1672,
      "longitude": 20.9671,
      "aliases": [
        "WAW",
        "Okecie"
      ]
    },
    {
      "name": "Budapest Ferenc Liszt International Airport",
      "iata": "BUD",
      "address": "Budapest, 1185 Hungary",
      "latitude": 47.4335,
      "longitude": 19.2396,
      "aliases": [
        "BUD",
        "Ferihegy"
      ]
    },
    {
      "name": "Nice Côte d'Azur Airport",
      "iata": "NCE",
      "address": "Rue Costes et Bellonte, 06206 Nice, France",
      "latitude": 43.6653,
      "longitude": 7.215,
      "aliases": [
        "NCE",
        "Nice Airport"
      ]
    },
    {
      "name": "Geneva Airport",
      "iata": "GVA",
      "address": "Route de l'Aéroport 21, 1215 Genève, Switzerland",
      "latitude": 46.237,
      "longitude": 6.1091,
      "aliases": [
        "GVA",
        "Cointrin"
      ]
    },
    {
      "name": "Milan Malpensa Airport",
      "iata": "MXP",
      "address": "21010 Ferno VA, Italy",
      "latitude": 45.63,
      "longitude": 8.7231,
      "aliases": [
        "MXP",
        "Malpensa"
      ]
    },
    {
      "name": "Tel Aviv Ben Gurion Airport",
      "iata": "TLV",
      "address": "7015001, Israel",
      "latitude": 32.0055,
      "longitude": 34.8854,
      "aliases": [
        "TLV",
        "Ben Gurion"
      ]
    },
    {
      "name": "Cairo International Airport",
      "iata": "CAI",
      "address": "Heliopolis, Cairo Governorate, Egypt",
      "latitude": 30.1219,
      "longitude": 31.4056,
      "aliases": [
        "CAI",
        "Cairo"
      ]
    },
    {
      "name": "OR Tambo International Airport",
      "iata": "JNB",
      "address": "1 Jones Rd, Kempton Park, Johannesburg, 1619, South Africa",
      "latitude": -26.1367,
      "longitude": 28.2411,
      "aliases": [
        "JNB",
        "Johannesburg Airport"
      ]
    },
    {
      "name": "Indira Gandhi International Airport",
      "iata": "DEL",
      "address": "New Delhi, Delhi 110037, India",
      "latitude": 28.5562,
      "longitude": 77.1,
      "aliases": [
        "DEL",
        "Delhi Airport"
      ]
    },
    {
      "name": "Chhatrapati Shivaji Maharaj International Airport",
      "iata": "BOM",
      "address": "Mumbai, Maharashtra 400099, India",
      "latitude": 19.0896,
      "longitude": 72.8656,
      "aliases": [
        "BOM",
        "Mumbai Airport"
      ]
    },
    {
      "name": "Kuala Lumpur International Airport",
      "iata": "KUL",
      "address": "64000 Sepang, Selangor, Malaysia",
      "latitude": 2.7456,
      "longitude": 101.7072,
      "aliases": [
        "KUL",
        "KLIA"
      ]
    },
    {
      "name": "Suvarnabhumi Airport",
      "iata": "BKK",
      "address": "999, Nong Prue, Bang Phli District, Samut Prakan 10540, Thailand",
      "latitude": 13.6895,
      "longitude": 100.7501,
      "aliases": [
        "BKK",
        "Bangkok Airport"
      ]
    },
    {
      "name": "Soekarno-Hatta International Airport",
      "iata": "CGK",
      "address": "Tangerang City, Banten 15126, Indonesia",
      "latitude": -6.1256,
      "longitude": 106.6559,
      "aliases": [
        "CGK",
        "Jakarta Airport"
      ]
    },
    {
      "name": "Ninoy Aquino International Airport",
      "iata": "MNL",
      "address": "Pasay, 1300 Metro Manila, Philippines",
      "latitude": 14.5086,
      "longitude": 121.0194,
      "aliases": [
        "MNL",
        "Manila Airport"
      ]
    },
    {
      "name": "Taiwan Taoyuan International Airport",
      "iata": "TPE",
      "address": "No. 9, Hangzhan S. Rd., Dayuan Dist., Taoyuan City 337, Taiwan",
      "latitude": 25.0797,
      "longitude": 121.2342,
      "aliases": [
        "TPE",
        "Taipei Airport"
      ]
    },
    {
      "name": "Kansai International Airport",
      "iata": "KIX",
      "address": "1 Senshukukokita, Izumisano, Osaka 549-0001, Japan",
      "latitude": 34.432,
      "longitude": 135.2304,
      "aliases": [
        "KIX",
        "Osaka Airport"
      ]
    },
    {
      "name": "Auckland Airport",
      "iata": "AKL",
      "address": "Ray Emery Dr, Māngere, Auckland 2022, New Zealand",
      "latitude": -37.0082,
      "longitude": 174.785,
      "aliases": [
        "AKL",
        "Auckland"
      ]
    },
    {
      "name": "Montreal-Pierre Elliott Trudeau International Airport",
      "iata": "YUL",
      "address": "975 Romeo-Vachon Blvd N, Dorval, Quebec H4Y 1H1, Canada",
      "latitude": 45.4657,
      "longitude": -73.7455,
      "aliases": [
        "YUL",
        "Montreal Airport"
      ]
    },
    {
      "name": "Calgary International Airport",
      "iata": "YYC",
      "address": "2000 Airport Rd NE, Calgary, AB T2E 6W5, Canada",
      "latitude": 51.1139,
      "longitude": -114.0203,
      "aliases": [
        "YYC",
        "Calgary Airport"
      ]
    },
    {
      "name": "El Dorado International Airport",
      "iata": "BOG",
      "address": "Fontibón, Bogotá, Colombia",
      "latitude": 4.7016,
      "longitude": -74.1469,
      "aliases": [
        "BOG",
        "Bogota Airport"
      ]
    },
    {
      "name": "Jorge Chávez International Airport",
      "iata": "LIM",
      "address": "Av. Elmer Faucett s/n, Callao 07031, Peru",
      "latitude": -12.0219,
      "longitude": -77.1143,
      "aliases": [
        "LIM",
        "Lima Airport"
      ]
    },
    {
      "name": "Arturo Merino Benítez International Airport",
      "iata": "SCL",
      "address": "Pudahuel, Santiago Metropolitan Region, Chile",
      "latitude": -33.393,
      "longitude": -70.7858,
      "aliases": [
        "SCL",
        "Santiago Airport"
      ]
    },
    {
      "name": "Ministro Pistarini International Airport",
      "iata": "EZE",
      "address": "Autuopista Tte. Gral. Ricchieri Km 33,5, B1802 Ezeiza, Buenos Aires, Argentina",
      "latitude": -34.8222,
      "longitude": -58.5358,
      "aliases": [
        "EZE",
        "Ezeiza Airport",
        "Buenos Aires"
      ]
    },
    {
      "name": "Tocumen International Airport",
      "iata": "PTY",
      "address": "Panama City, Panama",
      "latitude": 9.0714,
      "longitude": -79.3835,
      "aliases": [
        "PTY",
        "Panama City Airport"
      ]
    },
    {
      "name": "Luis Muñoz Marín International Airport",
      "iata": "SJU",
      "address": "Carolina, 00979, Puerto Rico",
      "latitude": 18.4394,
      "longitude": -66.0018,
      "aliases": [
        "SJU",
        "San Juan Airport"
      ]
    },
    {
      "name": "Palm Springs International Airport",
      "iata": "PSP",
      "address": "3400 E Tahquitz Canyon Way, Palm Springs, CA 92262, USA",
      "latitude": 33.8297,
      "longitude": -116.5067,
      "aliases": [
        "PSP",
        "Palm Springs"
      ]
    },
    {
      "name": "Charleston International Airport",
      "iata": "CHS",
      "address": "5500 International Blvd, North Charleston, SC 29418, USA",
      "latitude": 32.8986,
      "longitude": -80.0405,
      "aliases": [
        "CHS",
        "Charleston Airport"
      ]
    },
    {
      "name": "Myrtle Beach International Airport",
      "iata": "MYR",
      "address": "1100 Jetport Rd, Myrtle Beach, SC 29577, USA",
      "latitude": 33.6797,
      "longitude": -78.9283,
      "aliases": [
        "MYR",
        "Myrtle Beach"
      ]
    },
    {
      "name": "Pensacola International Airport",
      "iata": "PNS",
      "address": "2430 Airport Blvd, Pensacola, FL 32504, USA",
      "latitude": 30.4733,
      "longitude": -87.1874,
      "aliases": [
        "PNS",
        "Pensacola Airport"
      ]
    },
    {
      "name": "Richmond International Airport",
      "iata": "RIC",
      "address": "1 Richard E Byrd Terminal Dr, Richmond, VA 23250, USA",
      "latitude": 37.5052,
      "longitude": -77.3197,
      "aliases": [
        "RIC",
        "Richmond Airport"
      ]
    },
    {
      "name": "Greenville-Spartanburg International Airport",
      "iata": "GSP",
      "address": "2000 GSP Dr, Greer, SC 29651, USA",
      "latitude": 34.8956,
      "longitude": -82.2189,
      "aliases": [
        "GSP",
        "Greenville Airport"
      ]
    },
    {
      "name": "Knoxville McGhee Tyson Airport",
      "iata": "TYS",
      "address": "2055 Alcoa Hwy, Alcoa, TN 37701, USA",
      "latitude": 35.811,
      "longitude": -83.994,
      "aliases": [
        "TYS",
        "Knoxville Airport"
      ]
    },
    {
      "name": "Bill & Hillary Clinton National Airport",
      "iata": "LIT",
      "address": "1 Airport Rd, Little Rock, AR 72202, USA",
      "latitude": 34.7294,
      "longitude": -92.2247,
      "aliases": [
        "LIT",
        "Little Rock Airport"
      ]
    },
    {
      "name": "Wichita Dwight D. Eisenhower National Airport",
      "iata": "ICT",
      "address": "2277 Air Cargo Rd, Wichita, KS 67209, USA",
      "latitude": 37.6499,
      "longitude": -97.4331,
      "aliases": [
        "ICT",
        "Wichita Airport"
      ]
    },
    {
      "name": "Des Moines International Airport",
      "iata": "DSM",
      "address": "5800 Fleur Dr, Des Moines, IA 50321, USA",
      "latitude": 41.534,
      "longitude": -93.6631,
      "aliases": [
        "DSM",
        "Des Moines Airport"
      ]
    },
    {
      "name": "Huntsville International Airport",
      "iata": "HSV",
      "address": "1000 Glenn Hearn Blvd SW, Huntsville, AL 35824, USA",
      "latitude": 34.6372,
      "longitude": -86.7751,
      "aliases": [
        "HSV",
        "Huntsville Airport"
      ]
    },
    {
      "name": "Mobile Regional Airport",
      "iata": "MOB",
      "address": "8400 Airport Blvd, Mobile, AL 36608, USA",
      "latitude": 30.6912,
      "longitude": -88.2428,
      "aliases": [
        "MOB",
        "Mobile Airport"
      ]
    },
    {
      "name": "Piedmont Triad International Airport",
      "iata": "GSO",
      "address": "1000 Ted Johnson Pkwy, Greensboro, NC 27409, USA",
      "latitude": 36.1011,
      "longitude": -79.937,
      "aliases": [
        "GSO",
        "Greensboro Airport"
      ]
    },
    {
      "name": "Columbia Metropolitan Airport",
      "iata": "CAE",
      "address": "3250 Airport Blvd, West Columbia, SC 29170, USA",
      "latitude": 33.9388,
      "longitude": -81.1195,
      "aliases": [
        "CAE",
        "Columbia Airport"
      ]
    },
    {
      "name": "Northwest Arkansas National Airport",
      "iata": "XNA",
      "address": "1 Airport Blvd, Bentonville, AR 72712, USA",
      "latitude": 36.2818,
      "longitude": -94.3068,
      "aliases": [
        "XNA",
        "Fayetteville Airport"
      ]
    },
    {
      "name": "Jackson-Medgar Wiley Evers International Airport",
      "iata": "JAN",
      "address": "100 International Dr, Jackson, MS 39208, USA",
      "latitude": 32.3111,
      "longitude": -90.0759,
      "aliases": [
        "JAN",
        "Jackson Airport"
      ]
    },
    {
      "name": "Gulfport-Biloxi International Airport",
      "iata": "GPT",
      "address": "14035 Airport Rd, Gulfport, MS 39503, USA",
      "latitude": 30.4073,
      "longitude": -89.07,
      "aliases": [
        "GPT",
        "Gulfport Airport"
      ]
    },
    {
      "name": "Shreveport Regional Airport",
      "iata": "SHV",
      "address": "5103 Hollywood Ave, Shreveport, LA 71109, USA",
      "latitude": 32.4466,
      "longitude": -93.8256,
      "aliases": [
        "SHV",
        "Shreveport Airport"
      ]
    },
    {
      "name": "Baton Rouge Metropolitan Airport",
      "iata": "BTR",
      "address": "9430 Jackie Cochran Dr, Baton Rouge, LA 70807, USA",
      "latitude": 30.5332,
      "longitude": -91.1496,
      "aliases": [
        "BTR",
        "Baton Rouge Airport"
      ]
    },
    {
      "name": "Lafayette Regional Airport",
      "iata": "LFT",
      "address": "200 Terminal Dr, Lafayette, LA 70508, USA",
      "latitude": 30.2053,
      "longitude": -91.9877,
      "aliases": [
        "LFT",
        "Lafayette Airport"
      ]
    },
    {
      "name": "Tallahassee International Airport",
      "iata": "TLH",
      "address": "3300 Capital Cir SW, Tallahassee, FL 32310, USA",
      "latitude": 30.3965,
      "longitude": -84.3503,
      "aliases": [
        "TLH",
        "Tallahassee Airport"
      ]
    },
    {
      "name": "Gainesville Regional Airport",
      "iata": "GNV",
      "address": "3880 NE 39th Ave, Gainesville, FL 32609, USA",
      "latitude": 29.69,
      "longitude": -82.2717,
      "aliases": [
        "GNV",
        "Gainesville Airport"
      ]
    },
    {
      "name": "Daytona Beach International Airport",
      "iata": "DAB",
      "address": "700 Catalina Dr, Daytona Beach, FL 32114, USA",
      "latitude": 29.1799,
      "longitude": -81.058,
      "aliases": [
        "DAB",
        "Daytona Airport"
      ]
    },
    {
      "name": "Sarasota-Bradenton International Airport",
      "iata": "SRQ",
      "address": "6000 Airport Cir, Sarasota, FL 34243, USA",
      "latitude": 27.3955,
      "longitude": -82.554,
      "aliases": [
        "SRQ",
        "Sarasota Airport"
      ]
    },
    {
      "name": "St. Pete-Clearwater International Airport",
      "iata": "PIE",
      "address": "14700 Terminal Blvd, Clearwater, FL 33762, USA",
      "latitude": 27.9102,
      "longitude": -82.6874,
      "aliases": [
        "PIE",
        "Clearwater Airport"
      ]
    },
    {
      "name": "Lehigh Valley International Airport",
      "iata": "ABE",
      "address": "3311 Airport Rd, Allentown, PA 18109, USA",
      "latitude": 40.6521,
      "longitude": -75.44,
      "aliases": [
        "ABE",
        "Allentown Airport"
      ]
    },
    {
      "name": "Wilkes-Barre/Scranton International Airport",
      "iata": "AVP",
      "address": "100 Terminal Dr, Avoca, PA 18641, USA",
      "latitude": 41.3385,
      "longitude": -75.7234,
      "aliases": [
        "AVP",
        "Scranton Airport"
      ]
    },
    {
      "name": "Harrisburg International Airport",
      "iata": "MDT",
      "address": "1 Terminal Dr, Middletown, PA 17057, USA",
      "latitude": 40.1935,
      "longitude": -76.7634,
      "aliases": [
        "MDT",
        "Harrisburg Airport"
      ]
    },
    {
      "name": "Rhode Island T.F. Green International Airport",
      "iata": "PVD",
      "address": "2000 Post Rd, Warwick, RI 02886, USA",
      "latitude": 41.724,
      "longitude": -71.4282,
      "aliases": [
        "PVD",
        "Providence Airport"
      ]
    },
    {
      "name": "Burlington International Airport",
      "iata": "BTV",
      "address": "1200 Airport Dr, South Burlington, VT 05403, USA",
      "latitude": 44.473,
      "longitude": -73.1503,
      "aliases": [
        "BTV",
        "Burlington Airport"
      ]
    },
    {
      "name": "Albany International Airport",
      "iata": "ALB",
      "address": "737 Albany Shaker Rd, Albany, NY 12211, USA",
      "latitude": 42.7481,
      "longitude": -73.8017,
      "aliases": [
        "ALB",
        "Albany Airport"
      ]
    },
    {
      "name": "Syracuse Hancock International Airport",
      "iata": "SYR",
      "address": "1000 Col Eileen Collins Blvd, Syracuse, NY 13212, USA",
      "latitude": 43.1111,
      "longitude": -76.1063,
      "aliases": [
        "SYR",
        "Syracuse Airport"
      ]
    },
    {
      "name": "Frederick Douglass Greater Rochester International Airport",
      "iata": "ROC",
      "address": "1200 Brooks Ave, Rochester, NY 14624, USA",
      "latitude": 43.1189,
      "longitude": -77.6724,
      "aliases": [
        "ROC",
        "Rochester Airport"
      ]
    },
    {
      "name": "Colorado Springs Airport",
      "iata": "COS",
      "address": "7770 Milton E Proby Pkwy, Colorado Springs, CO 80916, USA",
      "latitude": 38.8058,
      "longitude": -104.7008,
      "aliases": [
        "COS",
        "Colorado Springs"
      ]
    },
    {
      "name": "Spokane International Airport",
      "iata": "GEG",
      "address": "9000 W Airport Dr, Spokane, WA 99224, USA",
      "latitude": 47.6185,
      "longitude": -117.5338,
      "aliases": [
        "GEG",
        "Spokane Airport"
      ]
    },
    {
      "name": "Eugene Airport",
      "iata": "EUG",
      "address": "28801 Douglas Dr, Eugene, OR 97402, USA",
      "latitude": 44.1246,
      "longitude": -123.2119,
      "aliases": [
        "EUG",
        "Mahlon Sweet Field"
      ]
    },
    {
      "name": "Santa Barbara Municipal Airport",
      "iata": "SBA",
      "address": "500 James Fowler Rd, Santa Barbara, CA 93117, USA",
      "latitude": 34.4262,
      "longitude": -119.8404,
      "aliases": [
        "SBA",
        "Santa Barbara Airport"
      ]
    },
    {
      "name": "Fresno Yosemite International Airport",
      "iata": "FAT",
      "address": "5175 E Clinton Way, Fresno, CA 93727, USA",
      "latitude": 36.7762,
      "longitude": -119.7181,
      "aliases": [
        "FAT",
        "Fresno Airport"
      ]
    },
    {
      "name": "Casablanca Mohammed V International Airport",
      "iata": "CMN",
      "address": "Nouaceur, Morocco",
      "latitude": 33.3675,
      "longitude": -7.5898,
      "aliases": [
        "CMN",
        "Casablanca"
      ]
    },
    {
      "name": "Marrakesh Menara Airport",
      "iata": "RAK",
      "address": "RAK Mhamid، 40000, Morocco",
      "latitude": 31.6069,
      "longitude": -8.0363,
      "aliases": [
        "RAK",
        "Marrakesh"
      ]
    },
    {
      "name": "Dakar Blaise Diagne International Airport",
      "iata": "DSS",
      "address": "Ndiass, Senegal",
      "latitude": 14.6711,
      "longitude": -17.0672,
      "aliases": [
        "DSS",
        "Dakar"
      ]
    },
    {
      "name": "Lagos Murtala Muhammed International Airport",
      "iata": "LOS",
      "address": "Ikeja, Lagos, Nigeria",
      "latitude": 6.5774,
      "longitude": 3.3211,
      "aliases": [
        "LOS",
        "Lagos"
      ]
    },
    {
      "name": "Nairobi Jomo Kenyatta International Airport",
      "iata": "NBO",
      "address": "Embakasi, Nairobi, Kenya",
      "latitude": -1.3192,
      "longitude": 36.9275,
      "aliases": [
        "NBO",
        "Nairobi"
      ]
    },
    {
      "name": "Addis Ababa Bole International Airport",
      "iata": "ADD",
      "address": "Bole, Addis Ababa, Ethiopia",
      "latitude": 8.9778,
      "longitude": 38.7993,
      "aliases": [
        "ADD",
        "Addis Ababa"
      ]
    },
    {
      "name": "Velana International Airport",
      "iata": "MLE",
      "address": "Hulhulé Island, Maldives",
      "latitude": 4.1918,
      "longitude": 73.5291,
      "aliases": [
        "MLE",
        "Male Maldives"
      ]
    },
    {
      "name": "Bandaranaike International Airport",
      "iata": "CMB",
      "address": "Canada Friendship Rd, Katunayake 11450, Sri Lanka",
      "latitude": 7.1808,
      "longitude": 79.8837,
      "aliases": [
        "CMB",
        "Colombo Airport"
      ]
    },
    {
      "name": "Tribhuvan International Airport",
      "iata": "KTM",
      "address": "Ring Rd, Kathmandu 44600, Nepal",
      "latitude": 27.6963,
      "longitude": 85.3591,
      "aliases": [
        "KTM",
        "Kathmandu"
      ]
    },
    {
      "name": "Phnom Penh International Airport",
      "iata": "PNH",
      "address": "12000 Russian Federation Blvd, Phnom Penh, Cambodia",
      "latitude": 11.5466,
      "longitude": 104.8441,
      "aliases": [
        "PNH",
        "Phnom Penh"
      ]
    },
    {
      "name": "Mactan-Cebu International Airport",
      "iata": "CEB",
      "address": "Lapu-Lapu City, Cebu, Philippines",
      "latitude": 10.3075,
      "longitude": 123.9794,
      "aliases": [
        "CEB",
        "Cebu Airport"
      ]
    },
    {
      "name": "I Ngurah Rai International Airport",
      "iata": "DPS",
      "address": "Jalan Raya Gusti Ngurah Rai, Tuban, Kuta, Badung Regency, Bali 80362, Indonesia",
      "latitude": -8.7481,
      "longitude": 115.1674,
      "aliases": [
        "DPS",
        "Bali Airport"
      ]
    },
    {
      "name": "Chiang Mai International Airport",
      "iata": "CNX",
      "address": "60 Mahidol Rd, Mueang Chiang Mai District, Chiang Mai 50200, Thailand",
      "latitude": 18.7752,
      "longitude": 98.9678,
      "aliases": [
        "CNX",
        "Chiang Mai"
      ]
    },
    {
      "name": "Phuket International Airport",
      "iata": "HKT",
      "address": "Mai Khao, Thalang District, Phuket 83110, Thailand",
      "latitude": 8.1132,
      "longitude": 98.3067,
      "aliases": [
        "HKT",
        "Phuket"
      ]
    },
    {
      "name": "Adelaide Airport",
      "iata": "ADL",
      "address": "Sir Richard Williams Ave, Adelaide SA 5950, Australia",
      "latitude": -34.945,
      "longitude": 138.531,
      "aliases": [
        "ADL",
        "Adelaide"
      ]
    },
    {
      "name": "Perth Airport",
      "iata": "PER",
      "address": "Perth Airport WA 6105, Australia",
      "latitude": -31.9385,
      "longitude": 115.9672,
      "aliases": [
        "PER",
        "Perth"
      ]
    },
    {
      "name": "Amarillo Rick Husband International Airport",
      "iata": "AMA",
      "address": "10801 Airport Blvd, Amarillo, TX 79111, USA",
      "latitude": 35.2194,
      "longitude": -101.7059,
      "aliases": [
        "AMA",
        "Amarillo Airport"
      ]
    },
    {
      "name": "Lubbock Preston Smith International Airport",
      "iata": "LBB",
      "address": "5401 N Martin L King Blvd, Lubbock, TX 79403, USA",
      "latitude": 33.6622,
      "longitude": -101.8231,
      "aliases": [
        "LBB",
        "Lubbock Airport"
      ]
    },
    {
      "name": "Midland International Air and Space Port",
      "iata": "MAF",
      "address": "9506 La Force Blvd, Midland, TX 79706, USA",
      "latitude": 31.9425,
      "longitude": -102.2019,
      "aliases": [
        "MAF",
        "Midland Airport"
      ]
    },
    {
      "name": "El Paso International Airport",
      "iata": "ELP",
      "address": "6701 Convair Rd, El Paso, TX 79925, USA",
      "latitude": 31.8072,
      "longitude": -106.3774,
      "aliases": [
        "ELP",
        "El Paso Airport"
      ]
    },
    {
      "name": "Tulsa International Airport",
      "iata": "TUL",
      "address": "7777 E Apache St, Tulsa, OK 74115, USA",
      "latitude": 36.1984,
      "longitude": -95.8881,
      "aliases": [
        "TUL",
        "Tulsa Airport"
      ]
    },
    {
      "name": "Will Rogers World Airport",
      "iata": "OKC",
      "address": "7100 Terminal Dr, Oklahoma City, OK 73159, USA",
      "latitude": 35.3931,
      "longitude": -97.6007,
      "aliases": [
        "OKC",
        "Oklahoma City Airport"
      ]
    },
    {
      "name": "Springfield-Branson National Airport",
      "iata": "SGF",
      "address": "2300 N Airport Blvd, Springfield, MO 65802, USA",
      "latitude": 37.2457,
      "longitude": -93.3886,
      "aliases": [
        "SGF",
        "Springfield Airport"
      ]
    },
    {
      "name": "Sioux Falls Regional Airport",
      "iata": "FSD",
      "address": "2801 Jaycee Ln, Sioux Falls, SD 57104, USA",
      "latitude": 43.581,
      "longitude": -96.7324,
      "aliases": [
        "FSD",
        "Joe Foss Field"
      ]
    },
    {
      "name": "Hector International Airport",
      "iata": "FAR",
      "address": "2801 32nd Ave N, Fargo, ND 58102, USA",
      "latitude": 46.9206,
      "longitude": -96.8158,
      "aliases": [
        "FAR",
        "Fargo Airport"
      ]
    },
    {
      "name": "Bismarck Municipal Airport",
      "iata": "BIS",
      "address": "2301 University Dr, Bismarck, ND 58504, USA",
      "latitude": 46.7727,
      "longitude": -100.7467,
      "aliases": [
        "BIS",
        "Bismarck Airport"
      ]
    },
    {
      "name": "Rapid City Regional Airport",
      "iata": "RAP",
      "address": "4550 Terminal Rd, Rapid City, SD 57703, USA",
      "latitude": 44.0453,
      "longitude": -103.0573,
      "aliases": [
        "RAP",
        "Rapid City"
      ]
    },
    {
      "name": "Jackson Hole Airport",
      "iata": "JAC",
      "address": "1250 E Airport Rd, Jackson, WY 83001, USA",
      "latitude": 43.6073,
      "longitude": -110.7377,
      "aliases": [
        "JAC",
        "Jackson Hole"
      ]
    },
    {
      "name": "Bozeman Yellowstone International Airport",
      "iata": "BZN",
      "address": "850 Gallatin Field Rd, Belgrade, MT 59714, USA",
      "latitude": 45.7772,
      "longitude": -111.153,
      "aliases": [
        "BZN",
        "Bozeman Airport"
      ]
    },
    {
      "name": "Billings Logan International Airport",
      "iata": "BIL",
      "address": "1901 Terminal Cir, Billings, MT 59105, USA",
      "latitude": 45.8077,
      "longitude": -108.5422,
      "aliases": [
        "BIL",
        "Billings Airport"
      ]
    },
    {
      "name": "Missoula Montana Airport",
      "iata": "MSO",
      "address": "5225 US-10, Missoula, MT 59808, USA",
      "latitude": 46.9163,
      "longitude": -114.0906,
      "aliases": [
        "MSO",
        "Missoula Airport"
      ]
    },
    {
      "name": "Juneau International Airport",
      "iata": "JNU",
      "address": "1873 Shell Simmons Dr, Juneau, AK 99801, USA",
      "latitude": 58.355,
      "longitude": -134.5764,
      "aliases": [
        "JNU",
        "Juneau"
      ]
    },
    {
      "name": "Ketchikan International Airport",
      "iata": "KTN",
      "address": "1000 Airport Terminal Way, Ketchikan, AK 99901, USA",
      "latitude": 55.3556,
      "longitude": -131.7139,
      "aliases": [
        "KTN",
        "Ketchikan"
      ]
    },
    {
      "name": "Quito Mariscal Sucre International Airport",
      "iata": "UIO",
      "address": "Tababela, Ecuador",
      "latitude": -0.1292,
      "longitude": -78.3575,
      "aliases": [
        "UIO",
        "Quito"
      ]
    },
    {
      "name": "Guayaquil José Joaquín de Olmedo International Airport",
      "iata": "GYE",
      "address": "Av. de las Américas, Guayaquil, Ecuador",
      "latitude": -2.1574,
      "longitude": -79.8836,
      "aliases": [
        "GYE",
        "Guayaquil"
      ]
    },
    {
      "name": "Montevideo Carrasco International Airport",
      "iata": "MVD",
      "address": "Ruta 101 Km. 19,950, 14000 Canelones, Uruguay",
      "latitude": -34.8384,
      "longitude": -56.0308,
      "aliases": [
        "MVD",
        "Carrasco"
      ]
    },
    {
      "name": "Asunción Silvio Pettirossi International Airport",
      "iata": "ASU",
      "address": "Luque, Paraguay",
      "latitude": -25.2398,
      "longitude": -57.5191,
      "aliases": [
        "ASU",
        "Asuncion"
      ]
    },
    {
      "name": "Brasília International Airport",
      "iata": "BSB",
      "address": "Lago Sul, Brasília - DF, 71608-900, Brazil",
      "latitude": -15.8697,
      "longitude": -47.9172,
      "aliases": [
        "BSB",
        "Brasilia"
      ]
    },
    {
      "name": "Rio de Janeiro Galeão International Airport",
      "iata": "GIG",
      "address": "Av. Vinte de Janeiro, s/nº - Ilha do Governador, Rio de Janeiro - RJ, 21941-900, Brazil",
      "latitude": -22.8123,
      "longitude": -43.2505,
      "aliases": [
        "GIG",
        "Galeao"
      ]
    },
    {
      "name": "Recife/Guararapes-Gilberto Freyre International Airport",
      "iata": "REC",
      "address": "Praça Ministro Salgado Filho, s/n - Imbiribeira, Recife - PE, 51210-902, Brazil",
      "latitude": -8.1264,
      "longitude": -34.9228,
      "aliases": [
        "REC",
        "Recife"
      ]
    },
    {
      "name": "Salvador Deputado Luís Eduardo Magalhães International Airport",
      "iata": "SSA",
      "address": "Praça Gago Coutinho, S/N - São Cristóvão, Salvador - BA, 41510-045, Brazil",
      "latitude": -12.9086,
      "longitude": -38.3225,
      "aliases": [
        "SSA",
        "Salvador"
      ]
    },
    {
      "name": "Tancredo Neves International Airport",
      "iata": "CNF",
      "address": "Rodovia MG-10, s/nº - Área Especial, Confins - MG, 33500-000, Brazil",
      "latitude": -19.6234,
      "longitude": -43.9586,
      "aliases": [
        "CNF",
        "Belo Horizonte Airport"
      ]
    },
    {
      "name": "Santos Dumont Airport",
      "iata": "SDU",
      "address": "Praça Senador Salgado Filho, s/n - Centro, Rio de Janeiro - RJ, 20021-340, Brazil",
      "latitude": -22.9105,
      "longitude": -43.1631,
      "aliases": [
        "SDU",
        "Rio Downtown"
      ]
    },
    {
      "name": "Viracopos International Airport",
      "iata": "VCP",
      "address": "Rodovia Santos Dumont, s/n - Km 66, Campinas - SP, 13055-901, Brazil",
      "latitude": -23.0074,
      "longitude": -47.1345,
      "aliases": [
        "VCP",
        "Campinas"
      ]
    },
    {
      "name": "Durban King Shaka International Airport",
      "iata": "DUR",
      "address": "King Shaka Dr, La Mercy, 4407, South Africa",
      "latitude": -29.6144,
      "longitude": 31.1197,
      "aliases": [
        "DUR",
        "Durban"
      ]
    },
    {
      "name": "Cape Town International Airport",
      "iata": "CPT",
      "address": "Matroosfontein, Cape Town, 7490, South Africa",
      "latitude": -33.9715,
      "longitude": 18.6021,
      "aliases": [
        "CPT",
        "Cape Town"
      ]
    },
    {
      "name": "King Abdulaziz International Airport",
      "iata": "JED",
      "address": "Jeddah, Saudi Arabia",
      "latitude": 21.6796,
      "longitude": 39.1565,
      "aliases": [
        "JED",
        "Jeddah Airport"
      ]
    },
    {
      "name": "King Khalid International Airport",
      "iata": "RUH",
      "address": "Riyadh, Saudi Arabia",
      "latitude": 24.9576,
      "longitude": 46.6988,
      "aliases": [
        "RUH",
        "Riyadh Airport"
      ]
    },
    {
      "name": "Hamad International Airport",
      "iata": "DOH",
      "address": "Doha, Qatar",
      "latitude": 25.2731,
      "longitude": 51.6081,
      "aliases": [
        "DOH",
        "Doha Airport"
      ]
    },
    {
      "name": "Abu Dhabi International Airport",
      "iata": "AUH",
      "address": "Abu Dhabi, United Arab Emirates",
      "latitude": 24.4331,
      "longitude": 54.6511,
      "aliases": [
        "AUH",
        "Abu Dhabi"
      ]
    },
    {
      "name": "Muscat International Airport",
      "iata": "MCT",
      "address": "Muscat, Oman",
      "latitude": 23.5933,
      "longitude": 58.2844,
      "aliases": [
        "MCT",
        "Muscat"
      ]
    },
    {
      "name": "Kuwait International Airport",
      "iata": "KWI",
      "address": "Ghazali Rd, Kuwait City, Kuwait",
      "latitude": 29.2263,
      "longitude": 47.9689,
      "aliases": [
        "KWI",
        "Kuwait City"
      ]
    },
    {
      "name": "Bahrain International Airport",
      "iata": "BAH",
      "address": "Khalifa Al Khabeer Hwy, Muharraq, Bahrain",
      "latitude": 26.2708,
      "longitude": 50.6331,
      "aliases": [
        "BAH",
        "Manama"
      ]
    },
    {
      "name": "Queen Alia International Airport",
      "iata": "AMM",
      "address": "Desert Hwy, Amman, Jordan",
      "latitude": 31.7225,
      "longitude": 35.9931,
      "aliases": [
        "AMM",
        "Amman Airport"
      ]
    },
    {
      "name": "Beirut-Rafic Hariri International Airport",
      "iata": "BEY",
      "address": "Beirut, Lebanon",
      "latitude": 33.8209,
      "longitude": 35.4884,
      "aliases": [
        "BEY",
        "Beirut"
      ]
    },
    {
      "name": "Marseille Provence Airport",
      "iata": "MRS",
      "address": "13700 Marignane, France",
      "latitude": 43.4367,
      "longitude": 5.215,
      "aliases": [
        "MRS",
        "Marseille"
      ]
    },
    {
      "name": "Toulouse-Blagnac Airport",
      "iata": "TLS",
      "address": "31703 Blagnac, France",
      "latitude": 43.6291,
      "longitude": 1.3638,
      "aliases": [
        "TLS",
        "Toulouse"
      ]
    },
    {
      "name": "Nantes Atlantique Airport",
      "iata": "NTE",
      "address": "44346 Bouguenais, France",
      "latitude": 47.1531,
      "longitude": -1.6107,
      "aliases": [
        "NTE",
        "Nantes"
      ]
    },
    {
      "name": "Bordeaux-Mérignac Airport",
      "iata": "BOD",
      "address": "Av. René Cassin, 33700 Mérignac, France",
      "latitude": 44.8283,
      "longitude": -0.7156,
      "aliases": [
        "BOD",
        "Bordeaux"
      ]
    },
    {
      "name": "Berlin Brandenburg Airport",
      "iata": "BER",
      "address": "Melli-Beese-Ring 1, 12529 Schönefeld, Germany",
      "latitude": 52.3667,
      "longitude": 13.5033,
      "aliases": [
        "BER",
        "Berlin"
      ]
    },
    {
      "name": "Hamburg Airport",
      "iata": "HAM",
      "address": "Flughafenstr. 1, 22335 Hamburg, Germany",
      "latitude": 53.6333,
      "longitude": 9.9889,
      "aliases": [
        "HAM",
        "Helmut Schmidt"
      ]
    },
    {
      "name": "Düsseldorf Airport",
      "iata": "DUS",
      "address": "Flughafenstraße 105, 40474 Düsseldorf, Germany",
      "latitude": 51.2895,
      "longitude": 6.7668,
      "aliases": [
        "DUS",
        "Düsseldorf"
      ]
    },
    {
      "name": "Cologne Bonn Airport",
      "iata": "CGN",
      "address": "Kennedystraße, 51147 Köln, Germany",
      "latitude": 50.8659,
      "longitude": 7.1427,
      "aliases": [
        "CGN",
        "Köln/Bonn"
      ]
    },
    {
      "name": "Stuttgart Airport",
      "iata": "STR",
      "address": "70629 Stuttgart, Germany",
      "latitude": 48.6899,
      "longitude": 9.2219,
      "aliases": [
        "STR",
        "Stuttgart"
      ]
    },
    {
      "name": "John Paul II International Airport Kraków-Balice",
      "iata": "KRK",
      "address": "kpt. Mieczysława Medweckiego 1, 32-083 Balice, Poland",
      "latitude": 50.0777,
      "longitude": 19.7848,
      "aliases": [
        "KRK",
        "Krakow Airport"
      ]
    },
    {
      "name": "Gdańsk Lech Wałęsa Airport",
      "iata": "GDN",
      "address": "ul. Słowackiego 200, 80-298 Gdańsk, Poland",
      "latitude": 54.3775,
      "longitude": 18.4661,
      "aliases": [
        "GDN",
        "Gdansk Airport"
      ]
    },
    {
      "name": "Thessaloniki Airport Makedonia",
      "iata": "SKG",
      "address": "Thessaloniki 551 03, Greece",
      "latitude": 40.5197,
      "longitude": 22.9708,
      "aliases": [
        "SKG",
        "Thessaloniki"
      ]
    },
    {
      "name": "Heraklion International Airport",
      "iata": "HER",
      "address": "Irakleio 716 01, Greece",
      "latitude": 35.3397,
      "longitude": 25.1803,
      "aliases": [
        "HER",
        "Nikos Kazantzakis"
      ]
    },
    {
      "name": "Istanbul Sabiha Gökçen International Airport",
      "iata": "SAW",
      "address": "Sanayi, 34906 Pendik/İstanbul, Turkey",
      "latitude": 40.8986,
      "longitude": 29.3092,
      "aliases": [
        "SAW",
        "Sabiha Gökçen"
      ]
    },
    {
      "name": "Antalya Airport",
      "iata": "AYT",
      "address": "Yeşilköy, 07230 Muratpaşa/Antalya, Turkey",
      "latitude": 36.9,
      "longitude": 30.8,
      "aliases": [
        "AYT",
        "Antalya"
      ]
    },
    {
      "name": "Larnaca International Airport",
      "iata": "LCA",
      "address": "Larnaca, Cyprus",
      "latitude": 34.8751,
      "longitude": 33.6249,
      "aliases": [
        "LCA",
        "Larnaca"
      ]
    },
    {
      "name": "Sheremetyevo Alexander S. Pushkin International Airport",
      "iata": "SVO",
      "address": "Khimki, Moscow Oblast, Russia",
      "latitude": 55.9726,
      "longitude": 37.4146,
      "aliases": [
        "SVO",
        "Sheremetyevo"
      ]
    },
    {
      "name": "Domodedovo Mikhail Lomonosov International Airport",
      "iata": "DME",
      "address": "Domodedovo, Moscow Oblast, Russia",
      "latitude": 55.4088,
      "longitude": 37.9063,
      "aliases": [
        "DME",
        "Domodedovo"
      ]
    },
    {
      "name": "Pulkovo Airport",
      "iata": "LED",
      "address": "St Petersburg, Russia",
      "latitude": 59.8003,
      "longitude": 30.2625,
      "aliases": [
        "LED",
        "Saint Petersburg"
      ]
    },
    {
      "name": "Sofia Airport",
      "iata": "SOF",
      "address": "bul. 'Christopher Columbus' 1, 1540 Sofia, Bulgaria",
      "latitude": 42.6967,
      "longitude": 23.4114,
      "aliases": [
        "SOF",
        "Sofia"
      ]
    },
    {
      "name": "Henri Coandă International Airport",
      "iata": "OTP",
      "address": "Calea Bucureştilor 224E, Otopeni 075150, Romania",
      "latitude": 44.5711,
      "longitude": 26.085,
      "aliases": [
        "OTP",
        "Bucharest Airport"
      ]
    },
    {
      "name": "Belgrade Nikola Tesla Airport",
      "iata": "BEG",
      "address": "Belgrade, Serbia",
      "latitude": 44.8184,
      "longitude": 20.3091,
      "aliases": [
        "BEG",
        "Belgrade"
      ]
    },
    {
      "name": "Zagreb Airport",
      "iata": "ZAG",
      "address": "Ul. Rudolfa Fizira 21, 10150, Zagreb, Croatia",
      "latitude": 45.7429,
      "longitude": 16.0688,
      "aliases": [
        "ZAG",
        "Franjo Tuđman"
      ]
    },
    {
      "name": "Keflavík International Airport",
      "iata": "KEF",
      "address": "235 Keflavík, Iceland",
      "latitude": 63.985,
      "longitude": -22.6056,
      "aliases": [
        "KEF",
        "Reykjavik Airport"
      ]
    },
    {
      "name": "Luxembourg Airport",
      "iata": "LUX",
      "address": "4 Rue de Trèves, 2632 Findel, Luxembourg",
      "latitude": 49.6233,
      "longitude": 6.2044,
      "aliases": [
        "LUX",
        "Luxembourg-Findel"
      ]
    },
    {
      "name": "Malta International Airport",
      "iata": "MLA",
      "address": "Luqa LQA 4000, Malta",
      "latitude": 35.8575,
      "longitude": 14.4775,
      "aliases": [
        "MLA",
        "Luqa"
      ]
    },
    {
      "name": "Osaka International Airport",
      "iata": "ITM",
      "address": "3-chōme-5-5 Hotarugaike Nishimachi, Toyonaka, Osaka 560-0036, Japan",
      "latitude": 34.7855,
      "longitude": 135.4382,
      "aliases": [
        "ITM",
        "Itami Airport"
      ]
    },
    {
      "name": "Fukuoka Airport",
      "iata": "FUK",
      "address": "778-1 Shimousui, Hakata Ward, Fukuoka, 812-0003, Japan",
      "latitude": 33.5859,
      "longitude": 130.4507,
      "aliases": [
        "FUK",
        "Fukuoka"
      ]
    },
    {
      "name": "New Chitose Airport",
      "iata": "CTS",
      "address": "Bibi, Chitose, Hokkaido 066-0012, Japan",
      "latitude": 42.7752,
      "longitude": 141.6923,
      "aliases": [
        "CTS",
        "Sapporo Airport"
      ]
    },
    {
      "name": "Chubu Centrair International Airport",
      "iata": "NGO",
      "address": "1-chōme-1 Centrair, Tokoname, Aichi 479-0881, Japan",
      "latitude": 34.8584,
      "longitude": 136.8054,
      "aliases": [
        "NGO",
        "Nagoya Airport"
      ]
    },
    {
      "name": "Naha Airport",
      "iata": "OKA",
      "address": "150 Kagamizu, Naha, Okinawa 901-0142, Japan",
      "latitude": 26.2064,
      "longitude": 127.6465,
      "aliases": [
        "OKA",
        "Okinawa Airport"
      ]
    },
    {
      "name": "Jeju International Airport",
      "iata": "CJU",
      "address": "2 Gonghang-ro, Jeju-si, Jeju-do, South Korea",
      "latitude": 33.5113,
      "longitude": 126.493,
      "aliases": [
        "CJU",
        "Jeju"
      ]
    },
    {
      "name": "Gimhae International Airport",
      "iata": "PUS",
      "address": "108 Gonghangjinip-ro, Gangseo-gu, Busan, South Korea",
      "latitude": 35.1795,
      "longitude": 128.9382,
      "aliases": [
        "PUS",
        "Busan Airport"
      ]
    },
    {
      "name": "Tan Son Nhat International Airport",
      "iata": "SGN",
      "address": "Truong Son, Ward 2, Tan Binh District, Ho Chi Minh City, Vietnam",
      "latitude": 10.8185,
      "longitude": 106.652,
      "aliases": [
        "SGN",
        "Ho Chi Minh City Airport"
      ]
    },
    {
      "name": "Da Nang International Airport",
      "iata": "DAD",
      "address": "Nguyễn Văn Linh, Hòa Thuận Tây, Hải Châu, Đà Nẵng 550000, Vietnam",
      "latitude": 16.0439,
      "longitude": 108.1994,
      "aliases": [
        "DAD",
        "Da Nang"
      ]
    },
    {
      "name": "Don Mueang International Airport",
      "iata": "DMK",
      "address": "222 Vibhavadi Rangsit Rd, Sanambin, Don Mueang, Bangkok 10210, Thailand",
      "latitude": 13.9126,
      "longitude": 100.6068,
      "aliases": [
        "DMK",
        "Bangkok Old Airport"
      ]
    },
    {
      "name": "Christchurch International Airport",
      "iata": "CHC",
      "address": "Memorial Ave, Christchurch Airport, Christchurch 8053, New Zealand",
      "latitude": -43.4894,
      "longitude": 172.5322,
      "aliases": [
        "CHC",
        "Christchurch"
      ]
    },
    {
      "name": "Wellington International Airport",
      "iata": "WLG",
      "address": "Stewart Duff Dr, Rongotai, Wellington 6022, New Zealand",
      "latitude": -41.3272,
      "longitude": 174.8053,
      "aliases": [
        "WLG",
        "Wellington"
      ]
    },
    {
      "name": "Brisbane Airport",
      "iata": "BNE",
      "address": "Airport Dr, Brisbane Airport QLD 4008, Australia",
      "latitude": -27.3942,
      "longitude": 153.1218,
      "aliases": [
        "BNE",
        "Brisbane"
      ]
    },
    {
      "name": "Cancún International Airport",
      "iata": "CUN",
      "address": "Carr. a Aeropuerto Cancún, 77500 Cancún, Q.R., Mexico",
      "latitude": 21.0367,
      "longitude": -86.8771,
      "aliases": [
        "CUN",
        "Cancun"
      ]
    },
    {
      "name": "Guadalajara International Airport",
      "iata": "GDL",
      "address": "Carr. Guadalajara - Chapala Km 17.5, 45659 Tlajomulco de Zúñiga, Jal., Mexico",
      "latitude": 20.5218,
      "longitude": -103.3112,
      "aliases": [
        "GDL",
        "Miguel Hidalgo y Costilla"
      ]
    },
    {
      "name": "Monterrey International Airport",
      "iata": "MTY",
      "address": "Carr. a Miguel Alemán Km 24, 66600 Apodaca, N.L., Mexico",
      "latitude": 25.7785,
      "longitude": -100.1069,
      "aliases": [
        "MTY",
        "General Mariano Escobedo"
      ]
    },
    {
      "name": "Tijuana International Airport",
      "iata": "TIJ",
      "address": "Carr. Aeropuerto S/N, Nueva Tijuana, 22435 Tijuana, B.C., Mexico",
      "latitude": 32.5411,
      "longitude": -116.9702,
      "aliases": [
        "TIJ",
        "General Abelardo L. Rodríguez"
      ]
    },
    {
      "name": "Los Cabos International Airport",
      "iata": "SJD",
      "address": "Carr. Transpeninsular Km 43.5, 23420 San José del Cabo, B.C.S., Mexico",
      "latitude": 23.1518,
      "longitude": -109.4122,
      "aliases": [
        "SJD",
        "San José del Cabo"
      ]
    },
    {
      "name": "Licenciado Gustavo Díaz Ordaz International Airport",
      "iata": "PVR",
      "address": "Carr. a Tepic Km 7.5, 48311 Puerto Vallarta, Jal., Mexico",
      "latitude": 20.6801,
      "longitude": -105.2542,
      "aliases": [
        "PVR",
        "Puerto Vallarta"
      ]
    },
    {
      "name": "Norman Manley International Airport",
      "iata": "KIN",
      "address": "Palisadoes, Kingston, Jamaica",
      "latitude": 17.9357,
      "longitude": -76.7875,
      "aliases": [
        "KIN",
        "Kingston Airport"
      ]
    },
    {
      "name": "Sangster International Airport",
      "iata": "MBJ",
      "address": "Montego Bay, Jamaica",
      "latitude": 18.5037,
      "longitude": -77.9134,
      "aliases": [
        "MBJ",
        "Montego Bay"
      ]
    },
    {
      "name": "Punta Cana International Airport",
      "iata": "PUJ",
      "address": "Punta Cana 23000, Dominican Republic",
      "latitude": 18.5674,
      "longitude": -68.3634,
      "aliases": [
        "PUJ",
        "Punta Cana"
      ]
    },
    {
      "name": "Las Américas International Airport",
      "iata": "SDQ",
      "address": "Ruta 66, Boca Chica 15701, Dominican Republic",
      "latitude": 18.4297,
      "longitude": -69.6689,
      "aliases": [
        "SDQ",
        "Santo Domingo"
      ]
    },
    {
      "name": "Lynden Pindling International Airport",
      "iata": "NAS",
      "address": "Windsor Field Rd, Nassau, Bahamas",
      "latitude": 25.0389,
      "longitude": -77.4662,
      "aliases": [
        "NAS",
        "Nassau Airport"
      ]
    },
    {
      "name": "Princess Juliana International Airport",
      "iata": "SXM",
      "address": "Airport Rd, Simpson Bay, Sint Maarten",
      "latitude": 18.041,
      "longitude": -63.1089,
      "aliases": [
        "SXM",
        "Saint Martin"
      ]
    },
    {
      "name": "Juan Santamaría International Airport",
      "iata": "SJO",
      "address": "Alajuela Province, Alajuela, Costa Rica",
      "latitude": 9.9981,
      "longitude": -84.2112,
      "aliases": [
        "SJO",
        "San Jose Costa Rica"
      ]
    },
    {
      "name": "Alejandro Velasco Astete International Airport",
      "iata": "CUZ",
      "address": "Av. Velasco Astete s/n, Wanchaq 08006, Peru",
      "latitude": -13.5357,
      "longitude": -71.9388,
      "aliases": [
        "CUZ",
        "Cusco Airport"
      ]
    },
    {
      "name": "Andrés Sabella Gálvez International Airport",
      "iata": "ANF",
      "address": "Antofagasta, Chile",
      "latitude": -23.4442,
      "longitude": -70.4451,
      "aliases": [
        "ANF",
        "Antofagasta"
      ]
    },
    {
      "name": "El Loa Airport",
      "iata": "CJC",
      "address": "Calama, Chile",
      "latitude": -22.498,
      "longitude": -68.903,
      "aliases": [
        "CJC",
        "Calama"
      ]
    },
    {
      "name": "Diego Aracena International Airport",
      "iata": "IQQ",
      "address": "Iquique, Chile",
      "latitude": -20.5353,
      "longitude": -70.1813,
      "aliases": [
        "IQQ",
        "Iquique"
      ]
    },
    {
      "name": "Carriel Sur International Airport",
      "iata": "CCP",
      "address": "Talcahuano, Bío Bío, Chile",
      "latitude": -36.7727,
      "longitude": -73.0631,
      "aliases": [
        "CCP",
        "Concepcion Chile"
      ]
    },
    {
      "name": "El Tepual Airport",
      "iata": "PMC",
      "address": "Puerto Montt, Los Lagos, Chile",
      "latitude": -41.43,
      "longitude": -73.09,
      "aliases": [
        "PMC",
        "Puerto Montt"
      ]
    },
    {
      "name": "Carlos Ibáñez del Campo International Airport",
      "iata": "PUQ",
      "address": "Punta Arenas, Magallanes and Chilean Antarctica, Chile",
      "latitude": -53.0026,
      "longitude": -70.8546,
      "aliases": [
        "PUQ",
        "Punta Arenas"
      ]
    },
    {
      "name": "José María Córdova International Airport",
      "iata": "MDE",
      "address": "Rionegro, Antioquia, Colombia",
      "latitude": 6.1645,
      "longitude": -75.4231,
      "aliases": [
        "MDE",
        "Medellin Airport"
      ]
    },
    {
      "name": "Alfonso Bonilla Aragón International Airport",
      "iata": "CLO",
      "address": "Palmira, Valle del Cauca, Colombia",
      "latitude": 3.5432,
      "longitude": -76.3816,
      "aliases": [
        "CLO",
        "Cali Airport"
      ]
    },
    {
      "name": "Rafael Núñez International Airport",
      "iata": "CTG",
      "address": "Crespo Calle 70, Cartagena, Bolívar, Colombia",
      "latitude": 10.4424,
      "longitude": -75.513,
      "aliases": [
        "CTG",
        "Cartagena Airport"
      ]
    },
    {
      "name": "Ernesto Cortissoz International Airport",
      "iata": "BAQ",
      "address": "Soledad, Atlántico, Colombia",
      "latitude": 10.8896,
      "longitude": -74.7808,
      "aliases": [
        "BAQ",
        "Barranquilla"
      ]
    },
    {
      "name": "Matecaña International Airport",
      "iata": "PEI",
      "address": "Pereira, Risaralda, Colombia",
      "latitude": 4.8123,
      "longitude": -75.7396,
      "aliases": [
        "PEI",
        "Pereira"
      ]
    },
    {
      "name": "Palonegro International Airport",
      "iata": "BGA",
      "address": "Lebrija, Santander, Colombia",
      "latitude": 7.1265,
      "longitude": -73.1848,
      "aliases": [
        "BGA",
        "Bucaramanga"
      ]
    },
    {
      "name": "Camillo Daza International Airport",
      "iata": "CUC",
      "address": "Cúcuta, Norte de Santander, Colombia",
      "latitude": 7.9275,
      "longitude": -72.5115,
      "aliases": [
        "CUC",
        "Cucuta"
      ]
    },
    {
      "name": "Gustavo Rojas Pinilla International Airport",
      "iata": "ADZ",
      "address": "San Andrés, Colombia",
      "latitude": 12.5847,
      "longitude": -81.7106,
      "aliases": [
        "ADZ",
        "San Andres Island"
      ]
    },
    {
      "name": "Mariscal Lamar International Airport",
      "iata": "CUE",
      "address": "Av. España, Cuenca, Ecuador",
      "latitude": -2.8888,
      "longitude": -78.9833,
      "aliases": [
        "CUE",
        "Cuenca Ecuador"
      ]
    },
    {
      "name": "Eloy Alfaro International Airport",
      "iata": "MEC",
      "address": "Manta, Ecuador",
      "latitude": -0.9475,
      "longitude": -80.6781,
      "aliases": [
        "MEC",
        "Manta Ecuador"
      ]
    },
    {
      "name": "Seymour Airport",
      "iata": "GPS",
      "address": "Baltra Island, Galapagos, Ecuador",
      "latitude": -0.4539,
      "longitude": -90.2659,
      "aliases": [
        "GPS",
        "Galapagos",
        "Baltra"
      ]
    },
    {
      "name": "San Cristóbal Airport",
      "iata": "SCY",
      "address": "San Cristóbal Island, Galapagos, Ecuador",
      "latitude": -0.912,
      "longitude": -89.6167,
      "aliases": [
        "SCY",
        "Galapagos San Cristobal"
      ]
    },
    {
      "name": "Alfredo Rodriguez Ballón International Airport",
      "iata": "AQP",
      "address": "Arequipa, Peru",
      "latitude": -16.3411,
      "longitude": -71.5831,
      "aliases": [
        "AQP",
        "Arequipa"
      ]
    },
    {
      "name": "Coronel FAP Francisco Secada Vignetta International Airport",
      "iata": "IQT",
      "address": "Iquitos, Peru",
      "latitude": -3.7847,
      "longitude": -73.3088,
      "aliases": [
        "IQT",
        "Iquitos"
      ]
    },
    {
      "name": "Capitán FAP Guillermo Concha Iberico International Airport",
      "iata": "PIU",
      "address": "Piura, Peru",
      "latitude": -5.2056,
      "longitude": -80.6164,
      "aliases": [
        "PIU",
        "Piura"
      ]
    },
    {
      "name": "Capitán FAP José A. Quiñones González International Airport",
      "iata": "CIX",
      "address": "Chiclayo, Peru",
      "latitude": -6.7875,
      "longitude": -79.8281,
      "aliases": [
        "CIX",
        "Chiclayo"
      ]
    },
    {
      "name": "Capitán FAP Carlos Martínez de Pinillos International Airport",
      "iata": "TRU",
      "address": "Huanchaco, Trujillo, Peru",
      "latitude": -8.0808,
      "longitude": -79.1086,
      "aliases": [
        "TRU",
        "Trujillo Peru"
      ]
    },
    {
      "name": "Inca Manco Cápac International Airport",
      "iata": "JUL",
      "address": "Juliaca, Peru",
      "latitude": -15.4671,
      "longitude": -70.1582,
      "aliases": [
        "JUL",
        "Juliaca"
      ]
    },
    {
      "name": "Padre Aldamiz International Airport",
      "iata": "PEM",
      "address": "Puerto Maldonado, Peru",
      "latitude": -12.6133,
      "longitude": -69.2286,
      "aliases": [
        "PEM",
        "Puerto Maldonado"
      ]
    },
    {
      "name": "Capitán FAP David Abensur Rengifo International Airport",
      "iata": "PCL",
      "address": "Pucallpa, Peru",
      "latitude": -8.3778,
      "longitude": -74.5742,
      "aliases": [
        "PCL",
        "Pucallpa"
      ]
    },
    {
      "name": "Mayor General FAP Armando Revoredo Iglesias Airport",
      "iata": "CJA",
      "address": "Cajamarca, Peru",
      "latitude": -7.1394,
      "longitude": -78.4897,
      "aliases": [
        "CJA",
        "Cajamarca"
      ]
    },
    {
      "name": "Coronel FAP Alfredo Mendívil Duarte Airport",
      "iata": "AYP",
      "address": "Ayacucho, Peru",
      "latitude": -13.1542,
      "longitude": -74.2045,
      "aliases": [
        "AYP",
        "Ayacucho"
      ]
    },
    {
      "name": "Francisco Carle Airport",
      "iata": "JAU",
      "address": "Jauja, Peru",
      "latitude": -11.7828,
      "longitude": -75.4741,
      "aliases": [
        "JAU",
        "Jauja"
      ]
    },
    {
      "name": "Capitán FAP Víctor Montes Arias Airport",
      "iata": "TYL",
      "address": "Talara, Peru",
      "latitude": -4.5762,
      "longitude": -81.2542,
      "aliases": [
        "TYL",
        "Talara"
      ]
    },
    {
      "name": "Capitán FAP Pedro Canga Rodríguez Airport",
      "iata": "TBP",
      "address": "Tumbes, Peru",
      "latitude": -3.5519,
      "longitude": -80.4819,
      "aliases": [
        "TBP",
        "Tumbes"
      ]
    },
    {
      "name": "Guillermo del Castillo Paredes Airport",
      "iata": "TPP",
      "address": "Tarapoto, Peru",
      "latitude": -6.484,
      "longitude": -76.371,
      "aliases": [
        "TPP",
        "Tarapoto"
      ]
    },
    {
      "name": "Comandante FAP Germán Arias Graziani Airport",
      "iata": "ATA",
      "address": "Anta, Ancash, Peru",
      "latitude": -9.3478,
      "longitude": -77.5986,
      "aliases": [
        "ATA",
        "Anta",
        "Huaraz"
      ]
    },
    {
      "name": "Renato Moreira Airport",
      "iata": "IMP",
      "address": "Imperatriz - MA, Brazil",
      "latitude": -5.5317,
      "longitude": -47.4586,
      "aliases": [
        "IMP",
        "Imperatriz"
      ]
    },
    {
      "name": "Val-de-Cans/Júlio Cezar Ribeiro International Airport",
      "iata": "BEL",
      "address": "Av. Júlio César, s/n - Val de Caes, Belém - PA, 66115-970, Brazil",
      "latitude": -1.3792,
      "longitude": -48.4764,
      "aliases": [
        "BEL",
        "Belem"
      ]
    },
    {
      "name": "Marechal Rondon International Airport",
      "iata": "CGB",
      "address": "Av. João Ponce de Arruda, s/n - Jardim Aeroporto, Várzea Grande - MT, 78110-100, Brazil",
      "latitude": -15.6531,
      "longitude": -56.1167,
      "aliases": [
        "CGB",
        "Cuiaba"
      ]
    },
    {
      "name": "Campo Grande International Airport",
      "iata": "CGR",
      "address": "Av. Duque de Caxias, s/n - Vila Serradinho, Campo Grande - MS, 79101-901, Brazil",
      "latitude": -20.4695,
      "longitude": -54.6703,
      "aliases": [
        "CGR",
        "Campo Grande"
      ]
    },
    {
      "name": "Santa Genoveva Airport",
      "iata": "GYN",
      "address": "Alameda dos Ipês, s/n - Setor Santa Genoveva, Goiânia - GO, 74672-856, Brazil",
      "latitude": -16.6322,
      "longitude": -49.2211,
      "aliases": [
        "GYN",
        "Goiania"
      ]
    },
    {
      "name": "Eurico de Aguiar Salles Airport",
      "iata": "VIX",
      "address": "Av. Roza Helena Schorling Albuquerque, s/n - Goiabeiras, Vitória - ES, 29075-052, Brazil",
      "latitude": -20.258,
      "longitude": -40.2863,
      "aliases": [
        "VIX",
        "Vitoria Brazil"
      ]
    },
    {
      "name": "Hercílio Luz International Airport",
      "iata": "FLN",
      "address": "Rod. Ac. ao Aeroporto, 6.200 - Carianos, Florianópolis - SC, 88047-902, Brazil",
      "latitude": -27.6719,
      "longitude": -48.5442,
      "aliases": [
        "FLN",
        "Florianopolis"
      ]
    },
    {
      "name": "Zumbi dos Palmares International Airport",
      "iata": "MCZ",
      "address": "Rodovia BR-104, s/n - Tabuleiro do Pinto, Rio Largo - AL, 57100-000, Brazil",
      "latitude": -9.5108,
      "longitude": -35.7917,
      "aliases": [
        "MCZ",
        "Maceio"
      ]
    },
    {
      "name": "Presidente Castro Pinto International Airport",
      "iata": "JPA",
      "address": "Bayeux - PB, 58300-000, Brazil",
      "latitude": -7.1483,
      "longitude": -34.9511,
      "aliases": [
        "JPA",
        "Joao Pessoa"
      ]
    },
    {
      "name": "Naples International Airport",
      "iata": "NAP",
      "address": "Viale F. Ruffo di Calabria, 80144 Napoli NA, Italy",
      "latitude": 40.8844,
      "longitude": 14.2908,
      "aliases": [
        "NAP",
        "Capodichino"
      ]
    },
    {
      "name": "Catania-Fontanarossa Airport",
      "iata": "CTA",
      "address": "Via Fontanarossa, 95121 Catania CT, Italy",
      "latitude": 37.4668,
      "longitude": 15.0658,
      "aliases": [
        "CTA",
        "Vincenzo Bellini"
      ]
    },
    {
      "name": "Palermo Falcone-Borsellino Airport",
      "iata": "PMO",
      "address": "90045 Cinisi PA, Italy",
      "latitude": 38.1759,
      "longitude": 13.091,
      "aliases": [
        "PMO",
        "Punta Raisi"
      ]
    },
    {
      "name": "Bologna Guglielmo Marconi Airport",
      "iata": "BLQ",
      "address": "Via del Triumvirato, 84, 40132 Bologna BO, Italy",
      "latitude": 44.5354,
      "longitude": 11.2887,
      "aliases": [
        "BLQ",
        "Bologna"
      ]
    },
    {
      "name": "Pisa International Airport",
      "iata": "PSA",
      "address": "Piazzale d'Ascanio, 1, 56121 Pisa PI, Italy",
      "latitude": 43.6839,
      "longitude": 10.3927,
      "aliases": [
        "PSA",
        "Galileo Galilei"
      ]
    },
    {
      "name": "Palma de Mallorca Airport",
      "iata": "PMI",
      "address": "07071 Palma, Balearic Islands, Spain",
      "latitude": 39.5517,
      "longitude": 2.7388,
      "aliases": [
        "PMI",
        "Son Sant Joan"
      ]
    },
    {
      "name": "Málaga Airport",
      "iata": "AGP",
      "address": "Av. del Comandante García Morato, s/n, 29004 Málaga, Spain",
      "latitude": 36.6749,
      "longitude": -4.4991,
      "aliases": [
        "AGP",
        "Costa del Sol"
      ]
    },
    {
      "name": "Alicante–Elche Miguel Hernández Airport",
      "iata": "ALC",
      "address": "03195 L'Altet, Alicante, Spain",
      "latitude": 38.2822,
      "longitude": -0.5582,
      "aliases": [
        "ALC",
        "Alicante"
      ]
    },
    {
      "name": "Valencia Airport",
      "iata": "VLC",
      "address": "Carretera del Aeropuerto, s/n, 46940 Manises, Valencia, Spain",
      "latitude": 39.4893,
      "longitude": -0.4816,
      "aliases": [
        "VLC",
        "Manises"
      ]
    },
    {
      "name": "Seville Airport",
      "iata": "SVQ",
      "address": "A-4, Km. 532, 41020 Sevilla, Spain",
      "latitude": 37.418,
      "longitude": -5.8931,
      "aliases": [
        "SVQ",
        "San Pablo"
      ]
    },
    {
      "name": "Porto Airport",
      "iata": "OPO",
      "address": "4470-558 Maia, Portugal",
      "latitude": 41.2421,
      "longitude": -8.6786,
      "aliases": [
        "OPO",
        "Francisco Sá Carneiro"
      ]
    },
    {
      "name": "Faro Airport",
      "iata": "FAO",
      "address": "8006-901 Faro, Portugal",
      "latitude": 37.0176,
      "longitude": -7.9697,
      "aliases": [
        "FAO",
        "Algarve"
      ]
    },
    {
      "name": "Madeira Airport",
      "iata": "FNC",
      "address": "9100-105 Santa Cruz, Portugal",
      "latitude": 32.6939,
      "longitude": -16.7744,
      "aliases": [
        "FNC",
        "Funchal",
        "Cristiano Ronaldo"
      ]
    },
    {
      "name": "Ponta Delgada Airport",
      "iata": "PDL",
      "address": "9500-749 Ponta Delgada, Portugal",
      "latitude": 37.7412,
      "longitude": -25.6979,
      "aliases": [
        "PDL",
        "João Paulo II"
      ]
    },
    {
      "name": "Bergen Airport, Flesland",
      "iata": "BGO",
      "address": "Flyplassvegen 555, 5258 Blomsterdalen, Norway",
      "latitude": 60.2934,
      "longitude": 5.2181,
      "aliases": [
        "BGO",
        "Flesland"
      ]
    },
    {
      "name": "Stavanger Airport, Sola",
      "iata": "SVG",
      "address": "Flyplassvegen 230, 4055 Sola, Norway",
      "latitude": 58.8765,
      "longitude": 5.6378,
      "aliases": [
        "SVG",
        "Sola"
      ]
    },
    {
      "name": "Trondheim Airport, Værnes",
      "iata": "TRD",
      "address": "7500 Stjørdal, Norway",
      "latitude": 63.4576,
      "longitude": 10.924,
      "aliases": [
        "TRD",
        "Værnes"
      ]
    },
    {
      "name": "Gothenburg Landvetter Airport",
      "iata": "GOT",
      "address": "438 80 Landvetter, Sweden",
      "latitude": 57.6628,
      "longitude": 12.2798,
      "aliases": [
        "GOT",
        "Landvetter"
      ]
    },
    {
      "name": "Birmingham Airport",
      "iata": "BHX",
      "address": "Birmingham B26 3QJ, United Kingdom",
      "latitude": 52.4539,
      "longitude": -1.7481,
      "aliases": [
        "BHX",
        "Birmingham UK"
      ]
    },
    {
      "name": "Edinburgh Airport",
      "iata": "EDI",
      "address": "Edinburgh EH12 9DN, United Kingdom",
      "latitude": 55.9508,
      "longitude": -3.3615,
      "aliases": [
        "EDI",
        "Edinburgh"
      ]
    },
    {
      "name": "Glasgow Airport",
      "iata": "GLA",
      "address": "Paisley PA3 2ST, United Kingdom",
      "latitude": 55.8707,
      "longitude": -4.4331,
      "aliases": [
        "GLA",
        "Glasgow"
      ]
    },
    {
      "name": "Bristol Airport",
      "iata": "BRS",
      "address": "Bristol BS48 3DY, United Kingdom",
      "latitude": 51.3827,
      "longitude": -2.7191,
      "aliases": [
        "BRS",
        "Bristol"
      ]
    },
    {
      "name": "Belfast International Airport",
      "iata": "BFS",
      "address": "Belfast BT29 4AB, United Kingdom",
      "latitude": 54.6575,
      "longitude": -6.2158,
      "aliases": [
        "BFS",
        "Aldergrove"
      ]
    },
    {
      "name": "George Best Belfast City Airport",
      "iata": "BHD",
      "address": "Belfast BT3 9JH, United Kingdom",
      "latitude": 54.6122,
      "longitude": -5.8725,
      "aliases": [
        "BHD",
        "Belfast City"
      ]
    },
    {
      "name": "Beijing Daxing International Airport",
      "iata": "PKX",
      "address": "Daxing District, Beijing, China",
      "latitude": 39.5091,
      "longitude": 116.4105,
      "aliases": [
        "PKX",
        "Daxing"
      ]
    },
    {
      "name": "Guangzhou Baiyun International Airport",
      "iata": "CAN",
      "address": "Baiyun, Guangzhou, Guangdong, China",
      "latitude": 23.3924,
      "longitude": 113.2988,
      "aliases": [
        "CAN",
        "Baiyun"
      ]
    },
    {
      "name": "Shenzhen Bao'an International Airport",
      "iata": "SZX",
      "address": "Bao'an, Shenzhen, Guangdong, China",
      "latitude": 22.6394,
      "longitude": 113.8107,
      "aliases": [
        "SZX",
        "Bao'an"
      ]
    },
    {
      "name": "Chengdu Shuangliu International Airport",
      "iata": "CTU",
      "address": "Shuangliu, Chengdu, Sichuan, China",
      "latitude": 30.5785,
      "longitude": 103.9471,
      "aliases": [
        "CTU",
        "Shuangliu"
      ]
    },
    {
      "name": "Kunming Changshui International Airport",
      "iata": "KMG",
      "address": "Guandu, Kunming, Yunnan, China",
      "latitude": 25.1019,
      "longitude": 102.9292,
      "aliases": [
        "KMG",
        "Changshui"
      ]
    },
    {
      "name": "Xi'an Xianyang International Airport",
      "iata": "XIY",
      "address": "Weicheng, Xianyang, Shaanxi, China",
      "latitude": 34.4471,
      "longitude": 108.7516,
      "aliases": [
        "XIY",
        "Xianyang"
      ]
    },
    {
      "name": "Chongqing Jiangbei International Airport",
      "iata": "CKG",
      "address": "Yubei, Chongqing, China",
      "latitude": 29.7192,
      "longitude": 106.6417,
      "aliases": [
        "CKG",
        "Jiangbei"
      ]
    },
    {
      "name": "Hangzhou Xiaoshan International Airport",
      "iata": "HGH",
      "address": "Xiaoshan, Hangzhou, Zhejiang, China",
      "latitude": 30.2295,
      "longitude": 120.4344,
      "aliases": [
        "HGH",
        "Xiaoshan"
      ]
    },
    {
      "name": "Nanjing Lukou International Airport",
      "iata": "NKG",
      "address": "Jiangning, Nanjing, Jiangsu, China",
      "latitude": 31.742,
      "longitude": 118.862,
      "aliases": [
        "NKG",
        "Lukou"
      ]
    },
    {
      "name": "Xiamen Gaoqi International Airport",
      "iata": "XMN",
      "address": "Huli, Xiamen, Fujian, China",
      "latitude": 24.544,
      "longitude": 118.127,
      "aliases": [
        "XMN",
        "Gaoqi"
      ]
    },
    {
      "name": "Qingdao Jiaodong International Airport",
      "iata": "TAO",
      "address": "Jiaozhou, Qingdao, Shandong, China",
      "latitude": 36.3333,
      "longitude": 120.0833,
      "aliases": [
        "TAO",
        "Jiaodong"
      ]
    },
    {
      "name": "Wuhan Tianhe International Airport",
      "iata": "WUH",
      "address": "Huangpi, Wuhan, Hubei, China",
      "latitude": 30.7838,
      "longitude": 114.2081,
      "aliases": [
        "WUH",
        "Tianhe"
      ]
    },
    {
      "name": "Zhengzhou Xinzheng International Airport",
      "iata": "CGO",
      "address": "Xinzheng, Zhengzhou, Henan, China",
      "latitude": 34.5197,
      "longitude": 113.8408,
      "aliases": [
        "CGO",
        "Xinzheng"
      ]
    },
    {
      "name": "Changsha Huanghua International Airport",
      "iata": "CSX",
      "address": "Huanghua, Changsha, Hunan, China",
      "latitude": 28.1892,
      "longitude": 113.2189,
      "aliases": [
        "CSX",
        "Huanghua"
      ]
    },
    {
      "name": "Haikou Meilan International Airport",
      "iata": "HAK",
      "address": "Meilan, Haikou, Hainan, China",
      "latitude": 19.9348,
      "longitude": 110.459,
      "aliases": [
        "HAK",
        "Meilan"
      ]
    },
    {
      "name": "Sanya Phoenix International Airport",
      "iata": "SYX",
      "address": "Tianya, Sanya, Hainan, China",
      "latitude": 18.3029,
      "longitude": 109.412,
      "aliases": [
        "SYX",
        "Phoenix Sanya"
      ]
    },
    {
      "name": "Tianjin Binhai International Airport",
      "iata": "TSN",
      "address": "Dongli, Tianjin, China",
      "latitude": 39.1243,
      "longitude": 117.346,
      "aliases": [
        "TSN",
        "Binhai"
      ]
    },
    {
      "name": "Urumqi Diwopu International Airport",
      "iata": "URC",
      "address": "Xinshi, Urumqi, Xinjiang, China",
      "latitude": 43.9071,
      "longitude": 87.4742,
      "aliases": [
        "URC",
        "Diwopu"
      ]
    },
    {
      "name": "Harbin Taiping International Airport",
      "iata": "HRB",
      "address": "Daoli, Harbin, Heilongjiang, China",
      "latitude": 45.6234,
      "longitude": 126.2503,
      "aliases": [
        "HRB",
        "Taiping"
      ]
    },
    {
      "name": "Guiyang Longdongbao International Airport",
      "iata": "KWE",
      "address": "Nanming, Guiyang, Guizhou, China",
      "latitude": 26.5385,
      "longitude": 106.811,
      "aliases": [
        "KWE",
        "Longdongbao"
      ]
    },
    {
      "name": "Lanzhou Zhongchuan International Airport",
      "iata": "LHW",
      "address": "Yongdeng, Lanzhou, Gansu, China",
      "latitude": 36.5167,
      "longitude": 103.6167,
      "aliases": [
        "LHW",
        "Zhongchuan"
      ]
    },
    {
      "name": "Birmingham-Shuttlesworth International Airport",
      "iata": "BHM",
      "address": "5900 Messer Airport Hwy, Birmingham, AL 35212, USA",
      "latitude": 33.5629,
      "longitude": -86.7535,
      "aliases": [
        "BHM",
        "Birmingham Alabama"
      ]
    },
    {
      "name": "Montgomery Regional Airport",
      "iata": "MGM",
      "address": "4445 Selma Hwy, Montgomery, AL 36108, USA",
      "latitude": 32.3006,
      "longitude": -86.3939,
      "aliases": [
        "MGM",
        "Dannelly Field"
      ]
    },
    {
      "name": "Gold Coast Airport",
      "iata": "OOL",
      "address": "Eastern Ave, Bilinga QLD 4225, Australia",
      "latitude": -28.1644,
      "longitude": 153.5047,
      "aliases": [
        "OOL",
        "Coolangatta"
      ]
    },
    {
      "name": "Cairns Airport",
      "iata": "CNS",
      "address": "Airport Ave, Cairns City QLD 4870, Australia",
      "latitude": -16.8858,
      "longitude": 145.7553,
      "aliases": [
        "CNS",
        "Cairns"
      ]
    },
    {
      "name": "Canberra Airport",
      "iata": "CBR",
      "address": "Pialligo ACT 2609, Australia",
      "latitude": -35.3069,
      "longitude": 149.195,
      "aliases": [
        "CBR",
        "Canberra"
      ]
    },
    {
      "name": "Hobart Airport",
      "iata": "HBA",
      "address": "Strachan St, Cambridge TAS 7170, Australia",
      "latitude": -42.8364,
      "longitude": 147.5103,
      "aliases": [
        "HBA",
        "Hobart"
      ]
    },
    {
      "name": "Darwin International Airport",
      "iata": "DRW",
      "address": "Henry Wrigley Dr, Eaton NT 0820, Australia",
      "latitude": -12.4147,
      "longitude": 130.8767,
      "aliases": [
        "DRW",
        "Darwin"
      ]
    },
    {
      "name": "Townsville Airport",
      "iata": "TSV",
      "address": "Corner Halifax St and, Stinson Ave, Garbutt QLD 4814, Australia",
      "latitude": -19.2525,
      "longitude": 146.7661,
      "aliases": [
        "TSV",
        "Townsville"
      ]
    },
    {
      "name": "Queenstown Airport",
      "iata": "ZQN",
      "address": "Sir Henry Wigley Dr, Frankton, Queenstown 9300, New Zealand",
      "latitude": -45.0211,
      "longitude": 168.7392,
      "aliases": [
        "ZQN",
        "Queenstown"
      ]
    },
    {
      "name": "Dunedin Airport",
      "iata": "DUD",
      "address": "25 Miller Rd, Momona 9073, New Zealand",
      "latitude": -45.9281,
      "longitude": 170.1983,
      "aliases": [
        "DUD",
        "Dunedin"
      ]
    },
    {
      "name": "Nelson Airport",
      "iata": "NSN",
      "address": "Trent Dr, Nelson 7011, New Zealand",
      "latitude": -41.2983,
      "longitude": 173.2217,
      "aliases": [
        "NSN",
        "Nelson"
      ]
    },
    {
      "name": "Nadi International Airport",
      "iata": "NAN",
      "address": "Nadi, Fiji",
      "latitude": -17.7553,
      "longitude": 177.4431,
      "aliases": [
        "NAN",
        "Nadi"
      ]
    },
    {
      "name": "La Tontouta International Airport",
      "iata": "NOU",
      "address": "Païta, New Caledonia",
      "latitude": -22.0144,
      "longitude": 166.2131,
      "aliases": [
        "NOU",
        "Noumea"
      ]
    },
    {
      "name": "Fa'a'ā International Airport",
      "iata": "PPT",
      "address": "Fa'a'ā, French Polynesia",
      "latitude": -17.556,
      "longitude": -149.611,
      "aliases": [
        "PPT",
        "Papeete"
      ]
    },
    {
      "name": "Rarotonga International Airport",
      "iata": "RAR",
      "address": "Avarua, Cook Islands",
      "latitude": -21.2028,
      "longitude": -159.8058,
      "aliases": [
        "RAR",
        "Rarotonga"
      ]
    },
    {
      "name": "Bauerfield International Airport",
      "iata": "VLI",
      "address": "Port Vila, Vanuatu",
      "latitude": -17.6994,
      "longitude": 168.32,
      "aliases": [
        "VLI",
        "Port Vila"
      ]
    },
    {
      "name": "Jacksons International Airport",
      "iata": "POM",
      "address": "Port Moresby, Papua New Guinea",
      "latitude": -9.4442,
      "longitude": 147.22,
      "aliases": [
        "POM",
        "Port Moresby"
      ]
    },
    {
      "name": "Antonio B. Won Pat International Airport",
      "iata": "GUM",
      "address": "355 Chalan Pasaheru, Tamuning, 96913, Guam",
      "latitude": 13.4839,
      "longitude": 144.7972,
      "aliases": [
        "GUM",
        "Guam"
      ]
    },
    {
      "name": "Bilbao Airport",
      "iata": "BIO",
      "address": "48180 Loiu, Biscay, Spain",
      "latitude": 43.3011,
      "longitude": -2.9106,
      "aliases": [
        "BIO",
        "Bilbao"
      ]
    },